stop_id,stop_name,stop_lat,stop_lon,route_type,wheelchair_boarding
GDCH5,Gare de Chantenay,47.19780644,-1.59498499,3,1
COMB2,Commerce,47.21354486,-1.55623236,0,1
COST1,Cousteau,47.23986299,-1.51291605,3,1
APER1,Ampère,47.30219818,-1.50783344,3,1
GRAM2,Grammoire,47.18367902,-1.47304411,3,2
GELL2,Grande Noëlle,47.16234559,-1.50219674,3,2
JMLI3,Jean Moulin,47.20720116,-1.59950823,3,1
LHOU1,La Houssais,47.1742361,-1.55369405,3,1
PRCE1,Procé,47.22249863,-1.58150336,3,1
PTPS2,Printemps,47.18860841,-1.50038748,3,2
TAID1,Toutes Aides,47.22647329,-1.52347072,3,1
RNDR1,Renardières,47.14942633,-1.6017785,3,1
ROTY2,Le Roty,47.30463836,-1.54544413,3,2
BRDI1,Briandière,47.19052786,-1.69370774,3,1
VINE2,Villeneuve,47.19388759,-1.51397632,3,2
BDSP1,Bd des Sports,47.16584432,-1.46801701,3,1
CRQU4,Place du Cirque,47.21684228,-1.55673668,3,1
ALDE4,Allende,47.17415264,-1.62378337,3,2
PDPI1,Pomme de Pin,47.26711133,-1.59533142,3,1
BLVU6,Mendès France - Bellevue,47.20852297,-1.61157784,3,1
RDNT2,Rue de Nantes,47.15132045,-1.53426139,3,1
DSAI2,Desaix,47.22628695,-1.54334599,3,1
BRUN1,Bruneau,47.22824329,-1.56176187,3,1
FLUR1,Fleurs,47.21583735,-1.71768546,3,1
LPEL4,Le Pellerin,47.2004823,-1.76283319,3,1
LMTA1,La Montagne,47.18880986,-1.68990375,3,1
JLVE3,Joliverie,47.18955371,-1.51750265,3,1
FMIT5,François Mitterrand,47.22201076,-1.63807657,3,1
HPLA1,Hôpital Laënnec,47.23687497,-1.6409032,3,1
SFEL1,St-Félix,47.23157278,-1.55651974,0,1
LCAR4,Le Cardo,47.26165344,-1.58447788,3,1
PHVE1,Pré Hervé,47.24414033,-1.51778942,3,2
PSPO2,Parc des Sports,47.25990767,-1.45025377,3,1
PSAU2,Porte de Sautron,47.25075097,-1.61875857,3,2
PCLO1,Petit Clos,47.20531532,-1.50978716,3,1
JMAC1,Jean Macé,47.19946775,-1.58897655,3,1
PTSC1,Petits Champs Blancs,47.28107227,-1.42011911,3,2
EVET1,École Vétérinaire,47.29003981,-1.52267599,3,1
CMUS2,Camus,47.21928251,-1.57285071,3,1
FER58,Ferrière,47.24325691,-1.59160402,3,2
CNNT1,Chemin Nantais,47.2886964,-1.43370965,3,2
MATI2,Matière,47.27641989,-1.4488315,3,1
ODNE2,Ordronneau,47.19383903,-1.57492591,3,2
MPAU3,Marcel Paul,47.24558647,-1.61560421,3,1
MRDI2,Maison Radieuse,47.18787779,-1.5663913,3,1
BGOG1,Bourgogne,47.24663549,-1.58916721,3,1
NIZA1,Nizan,47.20579506,-1.55029613,3,1
LDRE2,Landreau,47.23217333,-1.51623283,0,1
MOIN2,Moinard,47.2133467,-1.72942086,3,2
SLGE1,Salorges,47.20473367,-1.57500596,3,2
PPSI1,Petit Plessis,47.30225671,-1.38597102,3,2
FMIT7,François Mitterrand,47.2221974,-1.63882818,3,1
QTNE1,Quintaine,47.21668653,-1.46435448,3,1
BAST2,Bastille,47.17939569,-1.59716272,3,2
TTMO4,Trentemoult,47.19150041,-1.58259695,3,2
CVNI2,Chauvinière,47.25159865,-1.57210522,3,1
SVDI1,Solvardière,47.21812989,-1.64190497,3,1
BRUN2,Bruneau,47.22796235,-1.56138705,3,1
PRHE1,Petit Rocher,47.24053587,-1.47915352,3,1
BDAN1,Bd des Anglais,47.22639931,-1.58267361,3,1
CHZY2,Chanzy,47.22360468,-1.54546241,3,1
BTAI2,Bretinais,47.22170279,-1.66574133,3,2
GPRO1,Gare de Pont Rousseau,47.19295925,-1.54886586,0,1
TADI2,Taillandier,47.21425011,-1.71656179,3,2
GNRA1,Greneraie,47.19977438,-1.53353993,3,1
RVDI1,Rivaudière,47.22717663,-1.65071629,3,1
MMSS2,Mermoz,47.19876891,-1.51554456,3,2
GCAR4,Grand Carcouët,47.23129641,-1.59211662,3,1
LMNE1,Lemoine,47.23556457,-1.54749291,3,1
LCBU1,Le Corbusier,47.19010456,-1.56858841,3,1
GALH2,Galheur,47.16676315,-1.57991614,3,1
BYCE2,Centre de Bouaye,47.14389569,-1.69169656,3,1
PRTE3,Portereau,47.16731717,-1.50146756,3,1
BAUG2,Baugerie,47.20379388,-1.52027534,3,1
ROCA2,Rocade,47.16345094,-1.47442847,3,1
CCAN1,Couchant,47.26848778,-1.59960347,3,2
CLGE4,Chalonges,47.18982658,-1.47239431,3,1
BNGL1,Bénoni Goullin,47.20150548,-1.55375621,3,1
LHER1,La Herdrie,47.19780011,-1.4541178,3,1
CATI2,Cartier,47.26751933,-1.45560508,3,2
BNNO2,Bernanos,47.20616329,-1.61385944,3,1
MDLA1,Moulin des Landes,47.26201252,-1.48144859,3,1
NETR6,Neustrie,47.17733065,-1.59230042,3,1
MRZE1,Marzilles,47.18257148,-1.47586753,3,2
JMLI1,Jean Moulin,47.20714385,-1.59994678,0,1
PLPC1,Place des Pêcheurs,47.13636635,-1.66784775,3,2
LRAY2,Le Gray 1,47.2836932,-1.58658501,3,2
ZOLA3,Zola,47.21406159,-1.58733751,3,1
PATR2,Patis Rondin,47.24774407,-1.51691834,3,2
LOIR2,Loire,47.24846389,-1.48652555,3,1
PBAI2,Parc Bel Air,47.17851216,-1.47464856,3,2
BJOI6,Beaujoire,47.25952555,-1.52783915,3,1
IMPR2,Imprimeurs,47.2386219,-1.67025713,3,2
GRIM4,Grimm,47.21700789,-1.64677238,3,1
BESS2,Bessonneau,47.21462131,-1.71345944,3,1
INRE1,Indre,47.20112077,-1.66665753,3,1
BGTT1,Bergeronnettes,47.23956731,-1.6012531,3,1
LDRE3,Landreau,47.23154633,-1.51591396,3,2
MLIN1,Moulin,47.18869787,-1.50367568,3,2
VINE1,Villeneuve,47.19414521,-1.51322056,3,2
BEGE2,Beauger,47.23427946,-1.55283174,3,2
MASS2,Massigné,47.29886131,-1.57952889,3,2
CSRI2,Classerie,47.16818325,-1.55876431,3,1
JJNA1,Jean Jaurès,47.21875162,-1.56052292,0,1
ARAG2,Arago,47.30358086,-1.50498571,3,1
LGRI1,La Grille,47.25096813,-1.48120883,3,1
STXU1,St-Exupéry,47.15282524,-1.59480732,3,2
MLNE1,Moulinets,47.20991436,-1.62897353,3,1
HALA1,Haluchère - Batignolles,47.24891455,-1.52204605,3,1
GRTE2,Garotterie,47.22423142,-1.60693971,3,2
CADO2,Cadoire,47.25676518,-1.48811927,3,2
RDMV2,Rue de Mauves,47.27155996,-1.43258546,3,1
FRA59,Frachon,47.21895013,-1.62022527,3,1
VDLO2,Vieux Doulon,47.23543282,-1.5040298,3,1
SMIC1,St-Michel,47.22413488,-1.6443851,3,1
BJOI7,Beaujoire,47.25920163,-1.52785674,3,1
ALCH1,Champ de l'Alouette,47.28291888,-1.5801618,3,1
AUCP1,La Chapelle Aulnay,47.30818557,-1.54315164,3,1
SJBO1,St-Jean-de-Boiseau,47.19587465,-1.72479352,3,1
FLEU3,Fleuriaye,47.29923921,-1.50013248,3,1
PRUT2,Proutière,47.19778933,-1.78062875,3,1
FANE1,Faneurs,47.21370814,-1.70275248,3,1
COUD1,Coudray,47.2325425,-1.54236776,3,1
BUON1,Bougon,47.17418788,-1.61066406,3,2
DPTE1,Déportés,47.19633089,-1.49179469,3,1
BSEJ4,Beauséjour,47.23811486,-1.58713593,3,1
MRTE3,Marterie,47.17840473,-1.53049989,3,1
BEIL2,Beillevaire,47.24938735,-1.60726607,3,1
MGIN6,Mangin,47.20073835,-1.54555203,3,2
SVAU2,Savaudière,47.28929766,-1.51480478,3,2
STHR2,Alexandre Vincent - Ste-Thérèse,47.23268964,-1.577319,0,1
CRA99,Clairais,47.27556043,-1.43858807,3,1
COMC1,Commerce,47.21358587,-1.55592472,0,1
PCSI2,Petite Censive,47.26131814,-1.56416471,3,1
BENA2,Beaulieu,47.20393339,-1.53713804,3,1
FRMO1,Frémoire,47.15238287,-1.47497712,3,2
MLDR2,Maladrie,47.18833937,-1.49624089,3,1
CVDO1,Cimetière Vieux Doulon,47.23849235,-1.50040266,3,1
COME1,Commerce,47.21476115,-1.55600758,0,1
LAGE1,Largeau,47.19558785,-1.51009892,3,2
LRCH2,La Roche,47.21683018,-1.51805849,3,1
CCOU1,Champ de Courses,47.24451408,-1.56122079,3,1
HAVE3,Halvêque,47.25946702,-1.51874238,3,1
CHER2,La Cochère,47.20271109,-1.77821459,3,2
GSEN1,Grasse Noue,47.28025429,-1.5818988,3,2
ARBO2,Arbois,47.25838461,-1.58210153,3,2
DIDE3,Espace Diderot,47.18448466,-1.56299568,3,2
LILA1,Lilas,47.13774367,-1.46888716,3,2
GROR2,Garenne,47.26519412,-1.62747924,3,1
PIRD2,Pirmil,47.19598667,-1.54295176,3,1
BELE2,Bêle,47.26493211,-1.51062132,3,1
WDIS2,Walt Disney,47.19494093,-1.48998681,3,2
GERA5,Géraudière,47.26214561,-1.56640811,3,2
UBRU2,Usine Brûlée,47.19490872,-1.63189602,3,2
HALA2,Haluchère - Batignolles,47.24923231,-1.52240098,3,1
ECSU4,École Centrale - Audencia,47.24892515,-1.55106655,3,2
JAL99,Jalière,47.26390431,-1.596195,3,1
EPYY1,Epinay,47.29234172,-1.48690687,3,2
CHFL1,Champ Fleuri,47.14378619,-1.52472062,3,1
LPME2,La Plume,47.19490959,-1.505189,3,2
DLCR1,Delacroix,47.22365838,-1.58924196,3,1
PNRZ1,Pinier,47.1816115,-1.54534604,3,1
HRLL1,Hérelle,47.20141474,-1.5866322,3,1
VRPD1,Vert Praud,47.16650994,-1.5498311,3,1
BORL2,Bourrelière,47.15833317,-1.498414,3,2
PTBO1,Petit Bois,47.18570669,-1.67739063,3,1
FRET1,Forêt,47.24432176,-1.57538371,3,1
PTCH1,Patache,47.27094514,-1.61918524,3,2
RSCO1,Robert Scott,47.18692832,-1.45899957,3,2
HERM3,Hermeland,47.22970505,-1.61666533,3,1
PVT95,Porte de Vertou,47.18072185,-1.50569795,3,1
HAVE2,Halvêque,47.25721795,-1.52055259,0,1
MGIN5,Mangin,47.20108723,-1.5459434,3,2
OLIV2,Olivier,47.21746962,-1.72482009,3,1
ISLE2,Islettes,47.26335503,-1.47636628,3,2
FORU3,Forum d'Orvault,47.25401746,-1.61508982,3,2
EGAN2,Eglantine,47.23514479,-1.58834224,3,1
OGVA1,Orvault Grand Val,47.26196131,-1.59236998,0,1
SFEL3,St-Félix,47.23154179,-1.55639716,3,2
EDNA1,Édit de Nantes,47.21440578,-1.56869401,3,1
SOWE1,Soweto,47.23330119,-1.65163707,3,2
VIAR1,Viarme-Talensac,47.22155067,-1.56279316,0,1
PLTI2,Platière,47.19454583,-1.56108865,3,2
NRCA1,Noë Rocard,47.16340931,-1.49045412,3,2
NBEL2,Nouveau Bêle,47.26897277,-1.50192926,3,2
COLI1,Colinière,47.23587021,-1.50836278,3,1
TLDI1,Télindière,47.19620951,-1.737223,3,1
SILL4,Sillon de Bretagne,47.24554784,-1.60849996,3,2
AMPE1,Ampère,47.26072504,-1.55319084,3,1
BDPA4,Bout des Pavés,47.25400007,-1.57626784,3,2
LRYA1,Le Gray 2,47.28335549,-1.58401365,3,1
AMER2,Américains,47.23579689,-1.56789162,3,1
MNVE1,Maison Neuve,47.27473998,-1.46732416,3,2
RMAU2,Roche Maurice,47.19618931,-1.61828349,3,1
BRET2,Bretonnière,47.16633493,-1.46276026,3,1
SMHI2,St-Mihiel,47.22314487,-1.55341032,0,1
CEDR1,Cèdre,47.29944073,-1.56025341,3,2
GEVR1,Gesvres,47.26386262,-1.5486032,3,1
ANTO1,Antons,47.25765319,-1.62261111,3,1
MDLA2,Moulin des Landes,47.26207207,-1.48147269,3,1
BOCE1,Centre de Bouguenais,47.17923473,-1.62188977,3,1
BSNI1,Bussonnière,47.26894613,-1.44305606,3,1
GSNO1,Gare Nord - Jardin des Plantes,47.2178434,-1.54229871,0,1
JUIV2,Juiverie,47.210851,-1.62491755,3,1
HAV59,Halvêque,47.25709026,-1.5206545,3,1
BRTA2,Bretagne,47.2170707,-1.55818626,0,1
MDNE2,Madeleine,47.27563804,-1.48361964,3,1
PVTO6,Porte de Vertou,47.18113532,-1.50569592,3,1
ORNG2,La Chapelle Aulnay,47.30851128,-1.5402926,3,2
PDEA1,Porteurs d'Eau,47.27148994,-1.59767026,3,2
HMLL2,Houmaille,47.18907145,-1.58700912,3,1
EGL59,Égalité,47.20907138,-1.58777253,3,1
QSCO1,Quai Surcouf,47.19485573,-1.57787423,3,1
ESOR2,Écoles,47.14665531,-1.52899878,3,1
OCEA4,Couëron Océan,47.21341719,-1.73917976,3,2
CHSS1,Chaussée,47.1766578,-1.52100989,3,1
PB1B1,Parc de la Bouvre,47.17610035,-1.61304671,3,1
DUTR2,Duguay Trouin,47.22423991,-1.61644652,3,1
MOTE2,Motte Rouge,47.22772917,-1.55434663,0,1
TZEL4,Touzelles,47.20834245,-1.46688875,3,2
BDEL1,Baudelaire,47.23363734,-1.59309258,3,1
GCHE1,Gachet,47.29331867,-1.52392422,3,2
GRVI1,Guerivières,47.20536088,-1.46747769,3,2
CGAU1,Cimetière Gaudinière,47.24289239,-1.58288922,3,1
CAPE1,Capellia,47.27977047,-1.55491868,3,1
ARAG1,Arago,47.3035053,-1.50484787,3,1
PTON3,Portillon,47.14918426,-1.46799421,3,2
BYTO1,Bouaye Coteaux,47.16441304,-1.67924951,3,2
VEAG2,Véga,47.27969162,-1.46453227,3,2
COAY1,Corlay,47.20794484,-1.64414014,3,1
BEIL1,Beillevaire,47.24955677,-1.60739497,3,1
FRII1,François II,47.21842841,-1.68319067,3,1
JMLI4,Jean Moulin,47.20730336,-1.59999685,3,1
TBCH2,Trébuchet,47.22018202,-1.54688371,3,1
EGLI3,Égalité,47.20934095,-1.58710367,3,1
MCHA3,Mairie de Chantenay,47.20693687,-1.58821867,3,1
BLVU2,Mendès France - Bellevue,47.20889327,-1.61131174,0,1
PROU1,Pont Rousseau - Martyrs,47.1918891,-1.54820284,0,1
RAGO2,Ragon,47.16535357,-1.5424837,3,1
SVAU1,Savaudière,47.28923657,-1.51501614,3,2
HBDE2,Halbarderie,47.26837047,-1.43808288,3,1
GBTA1,Grande-Bretagne,47.26219833,-1.5023067,3,2
SOUI4,Souillarderie,47.23784581,-1.51571317,3,1
FADI2,Fardière,47.19814875,-1.60521069,3,1
AVEN2,Aveneaux,47.23283954,-1.63053322,3,1
RSRA1,Roseraie,47.26087454,-1.52835473,3,1
PTQQ1,Portricq,47.26524637,-1.52173261,3,1
MICH1,Michelet - Sciences,47.23535874,-1.55653219,0,1
ABDU1,Abel Durand,47.22021763,-1.60339294,3,1
MDAR2,Maison des Arts,47.211911,-1.61749986,3,1
AEPO1,D2A - Aéroport,47.15686225,-1.59741579,3,2
SPIN2,Saupin,47.2143335,-1.53737288,3,2
XBO59,Croix Bonneau,47.2094081,-1.59638864,3,1
PTRI2,Patouillerie,47.24544743,-1.58074734,3,1
LION1,Lionnière,47.21822104,-1.69626742,3,1
REDR2,Rédras,47.16457807,-1.50201474,3,2
BCNY3,Bas-Chantenay,47.1983862,-1.58796689,3,2
FRAC2,Frachon,47.21916013,-1.62074582,0,1
CLOT2,Clotais,47.1930111,-1.71822262,3,1
ADPI1,Avenue des Pins,47.2532589,-1.59659981,3,1
MDRE1,Madoire,47.26505485,-1.63890636,3,2
CLPT2,Clépettre,47.29667711,-1.54706585,3,1
FMIT2,François Mitterrand,47.22210178,-1.63857119,0,1
JNAI2,Jaunaie,47.21960813,-1.72732129,3,1
MBRU2,Moulin Brûlé,47.25941448,-1.65455915,3,1
SUCO1,Surcouf,47.26841713,-1.44512766,3,2
NOAH2,Noë St Jean,47.21917869,-1.73502173,3,1
MRTE2,Marterie,47.17926412,-1.53178253,3,1
BROS2,Brossais,47.16245679,-1.58560857,3,2
DOTT1,Douettée,47.20773953,-1.49828602,3,1
MTLI2,Martellière,47.19916262,-1.5264616,3,2
STH58,Alexandre Vincent - Ste-Thérèse,47.23274913,-1.57747675,3,2
LEVO1,Levoyer,47.19442286,-1.58099009,3,1
COME2,Commerce,47.21434554,-1.55572619,0,1
CCRE1,Chêne Creux,47.17045652,-1.54876905,3,1
ECHO3,Échoppes,47.14305747,-1.68650981,3,1
PERR1,Perray,47.24753547,-1.51413107,3,2
VSCO1,Vincent Scotto,47.2516446,-1.56596162,3,2
CSMP2,Casimir Perier,47.23120464,-1.56865519,3,2
CHPO2,Champonnière,47.16352336,-1.50568819,3,2
CRBE1,Corberie,47.15204168,-1.5241037,3,1
ADPI3,Avenue des Pins,47.25370314,-1.5977556,3,1
RCUU2,Rochu,47.2151108,-1.66655824,3,1
RGNI2,Reigniers,47.13713485,-1.46602599,3,2
VEIE2,Verrière,47.27682302,-1.57071054,3,2
CACE3,Centre de Carquefou,47.29655836,-1.49092862,3,1
GMAR9,Gare Maritime,47.20592555,-1.57274186,4,1
STXU2,St-Exupéry,47.15294271,-1.59487536,3,2
BARR2,La Barre,47.3087951,-1.38151453,3,2
ZOLA2,Zola,47.21370205,-1.58472294,3,2
TNVA1,Terres Neuvas,47.18594043,-1.5904776,3,2
DIDE1,Espace Diderot,47.18446244,-1.56229519,0,1
NOSH1,Noëlles,47.2402027,-1.60424648,3,1
GTVE2,Gaston Veil,47.21014781,-1.55561116,3,1
TML59,Tourmaline,47.22141698,-1.63230648,3,1
PSC59,Plaisance,47.24039406,-1.59156565,3,1
SADU2,Santos Dumont,47.25935534,-1.56792556,0,1
POMM2,Pommeraie,47.14594794,-1.69534038,3,1
CRSA1,Croissant,47.24042307,-1.53052133,3,1
EGAN1,Eglantine,47.23518001,-1.5881015,3,1
POLE1,Poulenc,47.25539512,-1.581258,3,2
PTVI2,Patis Viaud,47.138726,-1.45741169,3,2
BPTY1,Boulay Paty,47.22886156,-1.5762905,3,1
BGUT1,Louis Breguet,47.27201167,-1.46599732,3,1
PB1B6,Parc de la Bouvre,47.17669668,-1.61333376,3,1
FATA2,Fantaisie,47.25262588,-1.56815635,3,2
AUFR1,L'Aufrère,47.16734102,-1.52513142,3,2
GMA98,Gare Maritime,47.2070398,-1.57334929,3,1
DRLA1,Drouillard,47.1795971,-1.67751514,3,2
BEMZ4,Belges - Montbazon,47.23558764,-1.54113534,3,1
BOTI1,Boutière,47.157997,-1.46807489,3,2
THAT1,Théatre,47.2157276,-1.72872663,3,2
CHRE2,Chalâtres,47.231025,-1.53877622,3,1
RCAS2,René Cassin,47.26422697,-1.57592759,0,1
BDAN4,Bd des Anglais,47.22617423,-1.5831212,3,1
BLNO1,Bois de La Noé,47.14188109,-1.6715894,3,2
CIVL1,Circuit du Vallon,47.27364742,-1.44741776,3,2
NCTE2,Noé Cottée,47.19451463,-1.47946124,3,1
BOUE1,Bio Ouest Laënnec,47.23275471,-1.6418808,3,2
SBSA1,St-Jean-Baptiste de la Salle,47.23346567,-1.55991441,3,1
DCF58,Du Chaffault,47.20756176,-1.58184631,3,1
SAGL2,St-Aignan de Grand Lieu,47.12298497,-1.63468604,3,1
VGAC2,Vincent Gâche,47.20634369,-1.54820945,0,1
CACE1,Centre de Carquefou,47.29714506,-1.4901287,3,1
GERA1,Géraudière,47.26175705,-1.56711137,3,2
NETR7,Neustrie,47.17718383,-1.59274934,3,1
MRZE2,Marzilles,47.18272461,-1.47575822,3,2
VEXP2,Village Expo,47.21466281,-1.61513213,3,1
BANS1,Bois des Anses,47.24718695,-1.49477063,3,1
CCHA1,Couchant,47.27020292,-1.51366167,3,1
HERM2,Hermeland,47.23066805,-1.61718609,3,2
RREN3,Rond-Point de Rennes,47.23307783,-1.56605476,3,1
EVRD1,Evardière,47.29883604,-1.56615513,3,2
VEIE1,Verrière,47.27687581,-1.57048148,3,2
RCAS3,René Cassin,47.2648455,-1.57378312,3,1
SJBO2,St-Jean-de-Boiseau,47.19581382,-1.72490916,3,1
RZEE1,Razée,47.21482578,-1.46615871,3,1
BRLA1,Brouillard,47.2740044,-1.51439208,3,1
CBTE1,Choblèterie,47.13620886,-1.46142133,3,2
BVER1,Bouvernière,47.23762328,-1.61163942,3,1
POEC1,Portechaise,47.20081423,-1.52547341,3,1
LFAU2,Les Faulx,47.15720883,-1.52275962,3,1
GMOL2,Guy Mollet,47.2492274,-1.55409504,3,1
HFLE2,Hameau Fleuri,47.25101457,-1.58961707,3,1
LSYY1,Léon Say,47.22965417,-1.56922558,3,2
ANGE2,Les Anges,47.27515795,-1.63710377,3,1
PTGO2,Poitou,47.2097897,-1.46918162,3,2
SJAC4,St-Jacques,47.19390885,-1.5376255,3,1
PLTI1,Platière,47.19461767,-1.5588317,3,2
BAIR2,Bel Air,47.22545539,-1.559241,3,1
BGCY2,Beaugency,47.20381536,-1.49018924,3,1
LNAI2,Le Nain,47.22707577,-1.60048552,3,1
ROET2,Rouet,47.1486198,-1.52228473,3,1
SUCO2,Surcouf,47.26883011,-1.44582637,3,1
CARQ1,Carquefou,47.30370254,-1.48536605,3,2
CXFS1,Croix des Fosses,47.21318784,-1.46642296,3,1
PTL98,CES Petite Lande,47.17778377,-1.55012242,3,1
CZIN2,Chézine,47.23373473,-1.59932012,3,2
LONG1,Longchamp,47.23511719,-1.58256138,0,1
AIBU3,Airbus,47.15798334,-1.59127862,3,2
ECBU1,Écobuts,47.19393189,-1.50779579,3,2
PMTR2,Pont de la Métairie,47.26240332,-1.44624344,3,1
CHAB2,Chabossière,47.21532409,-1.68216819,3,2
ERDI2,Éraudière,47.24166754,-1.53500998,3,2
AMCA2,Armoricaine,47.25826258,-1.64752203,3,1
CALI1,Californie,47.1918853,-1.58422921,3,2
JALI3,Jalière,47.26390431,-1.596195,3,2
ALNE1,Aulne,47.27698152,-1.63902208,3,1
JDGA2,Jardins de Gaïa,47.15756688,-1.67822907,3,2
PRDI1,Praudière,47.25683743,-1.58379258,3,2
BAS98,Bastille,47.17940962,-1.59717695,3,2
BSAN2,Bobby Sands,47.22989006,-1.65301973,3,1
BCTT1,Blanchet,47.17164754,-1.54336364,3,1
BULA2,Butte des Landes,47.16077942,-1.49378527,3,2
BLDR1,Boulodrome,47.25762261,-1.51534316,3,1
FLUR2,Fleurs,47.21586059,-1.7179979,3,1
LRNE2,Lourneau,47.20026797,-1.48825735,3,1
GCEN2,Grande Censive,47.25211163,-1.54991861,3,1
DLLE1,Drillet,47.23485312,-1.66629438,3,1
MNSS2,Malnoue,47.20256279,-1.50558116,3,2
MPTA2,Maison Poitard,47.14698519,-1.64825784,3,2
GMAR1,Gare Maritime,47.20707518,-1.57291704,0,1
ODNE1,Ordronneau,47.19389218,-1.57431537,3,2
BCOI4,Branchoire,47.21781407,-1.60422459,3,1
MIAI1,Minais,47.25704904,-1.46613416,3,1
SADU1,Santos Dumont,47.25958658,-1.56833141,0,1
SSEB2,St-Sébastien,47.20754113,-1.50316185,3,1
MHDI2,Mahaudières,47.18890856,-1.56103357,3,2
TTMO5,Trentemoult,47.19185759,-1.58199944,3,1
MPAU6,Marcel Paul,47.2458014,-1.6157193,3,1
STBS1,Stade,47.19129159,-1.70722902,3,1
JBAR2,Jean Bart,47.19969093,-1.67650606,3,2
MRRI1,Marrière,47.23755532,-1.524666,3,1
HOGR1,Hongrie,47.21594292,-1.52411609,3,1
MADO1,Mandon,47.16083318,-1.47112327,3,2
DCFF2,Du Chaffault,47.20764712,-1.58198473,0,1
CALI3,Californie,47.1908612,-1.58531429,3,2
NRDA3,Neruda,47.21752081,-1.61294915,3,1
CECE1,Centre de La Chapelle,47.29913684,-1.54842829,3,2
LADO2,Ladoumègue,47.29582509,-1.48672198,3,2
BSTI1,Bastière,47.14843303,-1.45940479,3,2
PTBO2,Petit Bois,47.18543623,-1.6784313,3,1
CAHL2,Charlière,47.32083025,-1.55025441,3,2
CLET2,Clétras,47.25586218,-1.5115838,3,2
CUVI1,Cuvier,47.21073923,-1.57408225,3,2
MLCS1,Moulin Cassé,47.15606729,-1.71012099,3,2
LEGU1,Leygues,47.20333033,-1.54141061,3,1
PLAC2,Placis,47.19966003,-1.51986775,3,1
FLAN2,Flandres,47.28562681,-1.54787876,3,1
AGDR1,Angebardière,47.16942145,-1.50521068,3,1
PDOU2,Porte Douillard,47.28949725,-1.51845663,3,2
CLGE2,Chalonges,47.18915535,-1.47262002,3,1
MROT1,Moulin Rothard,47.1958626,-1.74035773,3,1
MOZI1,Monzie,47.20344488,-1.53993347,3,2
JCOU2,Joncours,47.22066083,-1.58625497,3,1
MCAS1,Moulin Cassé,47.25627066,-1.46917285,3,1
NIAG2,Niagara,47.30570573,-1.49470494,3,1
MAZE2,Mazères,47.31365297,-1.35064121,3,2
MOVA1,Mairie d'Orvault,47.27140142,-1.62289783,3,1
JUIV1,Juiverie,47.21072325,-1.62472964,3,1
LNNI1,Lonnières,47.3239146,-1.34784286,3,2
MITR3,Mitrie,47.2278126,-1.52532451,3,1
GBLO1,Grand Blottereau,47.22974326,-1.51105989,3,1
DCAN1,Duchesse Anne - Château,47.21629106,-1.54712738,0,1
LCNE1,Le Chêne,47.16522543,-1.48439435,3,1
EBCA2,Embarcadère,47.19344461,-1.64675763,3,1
JTIC1,Justice,47.20948976,-1.63099877,3,1
ROUS2,Roussière,47.29457715,-1.55299352,3,2
DLME4,Delorme,47.21522686,-1.56415645,3,2
EMBE1,Embellie,47.26470834,-1.51864544,3,1
BJLI1,Bois Jaulin,47.17755185,-1.63701632,3,1
LPEL2,Le Pellerin,47.20067171,-1.75953423,3,1
LRYA2,Le Gray 2,47.2832692,-1.58419394,3,1
RPBL3,République,47.20452977,-1.55504129,3,1
RNTI1,Reinetière,47.25685535,-1.49150955,3,1
PIBL2,Pierre Blanche,47.17203543,-1.62725386,3,1
DERV1,Dervallières,47.22883772,-1.59805271,3,1
PMAR1,Pont Marchand,47.26067881,-1.63149062,3,1
CDMA1,Champ de Manoeuvre,47.27269353,-1.50072902,3,1
PAEB1,Pablée,47.21592699,-1.74031888,3,2
GDFI1,Grand Fief,47.12571342,-1.62572272,3,2
PLOR1,Ploreau,47.30319545,-1.55176217,3,1
ACHA1,Angle Chaillou,47.26971087,-1.57189622,3,2
XTRU1,Croix Truin,47.19137662,-1.7112195,3,1
LCEE1,La Carrée,47.16853282,-1.54390397,3,1
LNNI2,Lonnières,47.32358894,-1.34763497,3,2
BENA3,Beaulieu,47.20344329,-1.53481098,3,1
ODLA2,Ouche des Landes,47.19493678,-1.48191462,3,1
MKSU1,Malakoff,47.2164381,-1.52132434,3,1
KOUF1,Koufra,47.25009025,-1.52983302,3,1
SOEC2,Souchais École,47.30356787,-1.49874075,3,1
GATI1,Gâtine,47.21340454,-1.66059828,3,1
CDAN6,Chêne des Anglais,47.26110215,-1.5747979,3,1
BSNI2,Bussonnière,47.26972299,-1.44372625,3,1
DRAD2,Désirade,47.27770254,-1.48412718,3,1
CHOC1,Chocolaterie,47.24287374,-1.52770038,3,1
RAZA3,Ranzay,47.25215223,-1.52990145,3,1
CONI2,Corniche,47.25285439,-1.5947538,3,2
PSOR1,Prières,47.15011002,-1.52616268,3,1
HBLI2,Hôpital Bellier,47.22112579,-1.52474528,0,1
BDPA2,Bout des Pavés,47.2527063,-1.57638613,3,1
VTNN2,Vertonne,47.1865825,-1.4939313,3,2
NOAH1,Noë St Jean,47.21928242,-1.73519621,3,1
BCES1,Bois Cesbron,47.26109438,-1.6244841,3,1
VRPD2,Vert Praud,47.16662575,-1.54994912,3,1
BYCE1,Centre de Bouaye,47.14397178,-1.69176169,3,1
CLTT2,Châlet,47.22942048,-1.54451867,3,1
SDON1,St-Donatien,47.22943648,-1.54024249,3,1
FRMO2,Frémoire,47.15332516,-1.47633012,3,2
STPI2,St-Pierre,47.21806866,-1.55175761,3,1
JLVE4,Joliverie,47.18967179,-1.51661141,3,1
TAID2,Toutes Aides,47.22605433,-1.52304517,3,1
LZCA1,Lusançay,47.20265351,-1.58230893,3,1
BCHE3,Basse Chênaie,47.24102763,-1.50856697,3,1
CNON1,Chinon,47.27413636,-1.42900524,3,2
PMEU1,Port aux Meules,47.16542361,-1.49301343,3,2
GDOU2,Grande Ouche,47.18133696,-1.57968637,0,1
CSTA1,Collège Ste-Anne,47.29496382,-1.49243602,3,2
MATI1,Matière,47.27636669,-1.4488886,3,1
PRGE1,Portail Rouge,47.24438574,-1.50436203,3,1
SVIN2,Stévin,47.26006192,-1.63431451,3,1
LPLE4,La Plée,47.19317355,-1.46273233,3,1
CATI1,Cartier,47.26820359,-1.45550147,3,1
SPRU1,Sully Prudhomme,47.2362545,-1.59655921,3,1
LNTT1,Linot,47.26545888,-1.52590509,3,1
FTDO1,Fructidor,47.24009067,-1.55952298,3,2
JANA1,Jaunais,47.17603889,-1.53376463,3,1
MCOU2,Mairie de Couëron,47.21210935,-1.7270121,3,1
RDFY2,Raoul Dufy,47.2226691,-1.5996297,3,1
BYTO2,Bouaye Coteaux,47.16477865,-1.67886486,3,2
ORVA1,Orvault,47.27871075,-1.6402016,3,1
WATT1,Wattignies,47.20414809,-1.54654609,0,1
POEC2,Portechaise,47.20060966,-1.52606786,3,1
CBRD1,Claude Bernard,47.22304901,-1.61174831,3,1
CVER1,Chapeau Verni,47.1893268,-1.5116823,3,1
PCZI1,Pont de Chézine,47.23814739,-1.61442889,3,2
EPIN1,Épinais,47.13630814,-1.61053845,3,2
XBON3,Croix Bonneau,47.21043565,-1.59628706,3,2
CTAR2,Cotalard,47.28617298,-1.53779415,3,1
BLVU5,Mendès France - Bellevue,47.20876514,-1.61137101,3,1
QSCO2,Quai Surcouf,47.19490569,-1.57794131,3,1
TENA3,Tertre,47.2139135,-1.60582096,3,1
SSGN2,Simone Signoret,47.17567117,-1.56372354,3,1
BZAR1,Buzardières,47.20725278,-1.65963116,3,1
ACHA2,Angle Chaillou,47.26981,-1.57210725,3,2
FOUL2,Foulquier,47.30982065,-1.5463002,3,1
LYOR3,Lycée d'Orbigny,47.15577397,-1.68149366,3,1
CMLL2,Charmille,47.25707866,-1.60617584,3,1
OLIV1,Olivier,47.21757479,-1.72485187,3,1
GCEN1,Grande Censive,47.25249406,-1.54829822,3,1
GLIE2,Gilière,47.29923507,-1.55337374,3,1
CURI1,Curie,47.19043615,-1.48699726,3,2
HAVE1,Halvêque,47.25744228,-1.52030817,0,1
PAMI1,Palmiers,47.19002854,-1.53299779,3,2
TPCH2,Terpsichore,47.2821819,-1.50147659,3,1
SOUI2,Souillarderie,47.2381248,-1.51604271,0,1
TBCH1,Trébuchet,47.2198078,-1.54561388,3,1
PTUR4,Pâtures,47.30382256,-1.55653737,3,2
CLMO2,Cimetière La Montagne,47.18732581,-1.6864902,3,1
CAST2,Castorama,47.25896592,-1.50696007,3,2
POTT1,Pottier,47.17793164,-1.62753849,3,1
BNIE1,Bournière,47.25435766,-1.4553686,3,2
RDFY1,Raoul Dufy,47.22259055,-1.59950361,3,1
PBLE4,Patis Brûlé,47.19926593,-1.50729755,3,2
CLSE1,Closeaux,47.23915156,-1.62799671,3,1
TML58,Tourmaline,47.22149319,-1.63270876,3,1
EPYY2,Epinay,47.29218742,-1.48686141,3,2
LLMO1,Le Clémois,47.13741437,-1.72256644,3,1
EQPE1,Équipement,47.22380464,-1.57537721,3,1
HGNR2,Haute Gournière,47.26788984,-1.54586193,3,2
GCHE2,Gachet,47.29259995,-1.52403246,3,2
FLAN1,Flandres,47.28583418,-1.54669464,3,1
LAHA1,La Haie,47.26092483,-1.47509623,3,2
DAKK2,Danemark,47.26190702,-1.49649643,3,2
GLNE1,Galarne,47.20819359,-1.53000277,3,1
AVEN1,Aveneaux,47.23391561,-1.62972968,3,1
LACH1,L'Arche,47.21288811,-1.70861683,3,1
FTAB2,Félix Tableau,47.18738598,-1.5468072,3,1
BALI3,Balinière,47.18466884,-1.5544073,3,1
GOLF2,Golf,47.23619473,-1.60434919,3,2
BODO3,Bourdonnières,47.18638625,-1.52199103,3,1
BLCH2,Blancho,47.21328623,-1.73465391,3,2
LABE2,Lac de Beaulieu,47.21935437,-1.69242493,3,1
RNRE2,Renaudières,47.29936083,-1.50806216,3,1
RVAN2,Rond-Point de Vannes,47.22982062,-1.57268482,0,1
TILL2,Tillay,47.2287764,-1.60622627,3,1
CLMO1,Cimetière La Montagne,47.18747211,-1.68655669,3,1
SMAR2,St-Martin,47.21339353,-1.6930349,3,2
BNNO1,Bernanos,47.20648886,-1.61332175,3,1
GDNN2,Gendronnerie,47.12704832,-1.63987161,3,2
MCHA2,Mairie de Chantenay,47.2071462,-1.58752031,3,1
RSLI2,Rousselière,47.17550129,-1.51764952,3,1
LCTE2,La Côte,47.28211027,-1.56060553,3,1
NRDA1,Neruda,47.21753055,-1.6134271,0,1
VDCE1,Val du Cens,47.26109415,-1.66452042,3,1
PNRZ2,Pinier,47.18269794,-1.54555296,3,1
BDPA5,Bout des Pavés,47.25350051,-1.575595,3,1
PSIN1,Pasteur,47.20100501,-1.6786029,3,2
VALL2,Vallée,47.25042201,-1.57686974,3,1
PPTR1,Papotière,47.24012385,-1.49684202,3,1
KOEN1,Koenig,47.19803845,-1.6156331,3,2
BARR1,La Barre,47.30875926,-1.38111747,3,2
SJPO1,St-Joseph de Porterie,47.26786807,-1.51677618,3,1
MPER1,Millepertuis,47.22198733,-1.67944144,3,1
GERA3,Géraudière,47.26268574,-1.56660234,3,2
ZENI1,Zénith,47.23048053,-1.62922634,3,1
PIPA1,Pipay,47.22579664,-1.53695632,3,1
SEC58,Schoelcher,47.22065473,-1.62828372,3,1
RMNE1,Romanet,47.21149135,-1.60924709,0,1
GNRA6,Greneraie,47.19932757,-1.532872,3,1
ARCA1,Arcades,47.21182995,-1.65277809,3,1
COLI3,Colinière,47.23655083,-1.50799252,3,1
FRON3,Frêne Rond,47.19038613,-1.49641519,3,1
CUIE1,Chausserie,47.14942648,-1.70423348,3,1
MNTR3,Ménétrier,47.24087216,-1.52370469,3,1
JNLI1,Jonelière,47.25173237,-1.54077058,3,2
RTSC4,Recteur Schmitt,47.25238202,-1.55295818,3,1
XJAN1,Croix Jeannette,47.17118755,-1.62367633,3,2
RSLI1,Rousselière,47.17564052,-1.51833318,3,1
MVAN2,Mortier Vannerie,47.18016409,-1.49943751,3,2
BLGO2,Berligout,47.21568713,-1.67854942,3,1
CHGN2,Châtaigniers,47.22171128,-1.60185565,3,1
LME98,La Martinière,47.20633168,-1.78491058,3,1
PRZE2,Porte de Rezé,47.15727632,-1.54095989,3,1
SSTA1,St-Stanislas,47.22221355,-1.55658556,3,1
HAUB2,Haubans,47.21441325,-1.52995657,3,1
SOCH1,Souchais,47.30772568,-1.48952165,3,1
BSOL2,Beau Soleil,47.17752041,-1.64436806,3,2
JAPY2,Japy,47.25991509,-1.51039387,3,1
BGTT2,Bergeronnettes,47.23928085,-1.60035784,3,1
PTCH2,Patache,47.27125269,-1.61961956,3,2
KOEN2,Koenig,47.19809806,-1.61541813,3,2
GSAN2,George Sand,47.16583906,-1.54582312,3,1
PCSI1,Petite Censive,47.26046858,-1.56105454,3,2
LLIO1,Les Lions,47.24959938,-1.61385982,3,1
TERR1,Terray,47.25184554,-1.52730916,3,1
MORH3,Morrhonnière - Petit Port,47.24153989,-1.55626804,3,1
BUSS1,Buisson,47.26060509,-1.48742297,3,2
THEB2,Thébaudières,47.24440559,-1.60637221,3,1
PIPA2,Pipay,47.22554026,-1.53734893,3,2
PCPE3,Porte de La Chapelle,47.25932877,-1.55720231,3,1
BATI1,Batignolles,47.25554394,-1.52963613,3,1
PAPO1,Parc Potager,47.23591597,-1.5224927,3,1
PBRE1,Petit Breton,47.21330177,-1.59937014,3,1
LJOS2,Léon Jost,47.23582877,-1.56343751,3,1
HBRA1,Herbray,47.15022667,-1.47103341,3,2
GONI1,Gournière,47.26842282,-1.54942559,3,1
AQUI2,Aquitaine,47.20975523,-1.61483312,3,1
GIAR2,Gilarderie,47.1858884,-1.68248578,3,1
SBSA2,St-Jean-Baptiste de la Salle,47.23337903,-1.55997289,3,1
SRTR1,Sartre,47.21425401,-1.64021155,3,2
PLCL1,Polyclinique,47.22795622,-1.61153141,3,1
BCHE2,Basse Chênaie,47.24145339,-1.50835821,3,1
BCGA4,Bd Charles Gautier,47.22282517,-1.60702642,3,1
PRTE2,Portereau,47.16810707,-1.5007912,3,1
RUET2,Ruette,47.23335669,-1.51127357,3,1
BJLI2,Bois Jaulin,47.1775634,-1.636786,3,1
PLAE1,Planche Etienne,47.16596682,-1.62533073,3,1
GCAR3,Grand Carcouët,47.23111816,-1.59177031,3,1
VRIE2,Vrière,47.28218794,-1.5561165,3,1
GSIN1,Grassinière,47.16579206,-1.50790187,3,2
MONE4,Moinet,47.26495287,-1.49218606,3,2
MQDI1,Marquis de Dion,47.29713845,-1.48785519,3,1
MGDR1,Mongendrière,47.29265614,-1.5542476,3,1
JAME3,Jamet,47.2103271,-1.60415692,3,2
LFLE2,Laurier Fleuri,47.18756851,-1.48488075,3,2
BAS99,Bastille,47.17898673,-1.59695301,3,2
BGLA2,Basse-Goulaine,47.21117541,-1.46670948,3,2
BGLA1,Basse-Goulaine,47.21123001,-1.46655607,3,2
PFNA1,Purfina,47.19458586,-1.63496554,3,1
GVNO2,Gare de Vertou Nord,47.1870999,-1.47850463,3,1
BEHI2,Behinière,47.19701789,-1.79093353,3,1
CRNO2,Corbon,47.21335549,-1.46090204,3,2
NONO1,Noë Nozou,47.13023685,-1.63718873,3,1
JVNA1,Jules Verne,47.24866366,-1.51721344,3,1
MLCS2,Moulin Cassé,47.15575719,-1.70982025,3,2
BCHE4,Basse Chênaie,47.24192686,-1.50893315,3,1
RBNI3,Robinière,47.16364446,-1.53554305,3,2
BENA1,Beaulieu,47.20414853,-1.53714172,3,1
FTAB1,Félix Tableau,47.18752997,-1.54697091,3,1
PLBL2,Port la Blanche,47.27190215,-1.51644776,3,1
RAZA4,Ranzay,47.25384595,-1.52988637,3,1
GIND1,Gare d'Indre,47.2049257,-1.6625528,3,1
CHIN2,La Chesnaie,47.28167117,-1.53759214,3,1
CTBO2,Coteaux,47.18438813,-1.66923766,3,1
BSYS2,Bois St-Lys,47.30028294,-1.48207373,3,1
COET2,Les Couëts,47.18069157,-1.58668691,0,1
CROU1,Chemin Rouge,47.25157842,-1.51760872,3,2
VTOU1,Vertou,47.16904084,-1.47117202,3,1
CDAN4,Chêne des Anglais,47.26150091,-1.57366281,3,1
OCEA1,Couëron Océan,47.21330012,-1.73935724,3,2
VIER2,Viv'Erdre,47.28563361,-1.55037822,3,2
CRTI1,Crétinières,47.27715351,-1.5534669,3,1
OLYM1,Olympe de Gouges,47.30872634,-1.54453364,3,1
BVOI4,Beauvoir,47.17884915,-1.62668434,3,1
SLVI1,St-Léger-les-Vignes,47.13650462,-1.73016715,3,1
RVER1,Roches Vertes,47.18520873,-1.52399086,3,1
SLGE2,Salorges,47.20533199,-1.57436112,3,1
TMLI2,Tourmaline,47.22150673,-1.63278645,0,1
CLGE5,Chalonges,47.18989002,-1.4727093,3,1
AEPO2,D2A - Aéroport,47.15695907,-1.59727104,3,2
DRID2,Druides,47.23855394,-1.50750309,3,1
HALF3,Haluchère - Batignolles,47.24898782,-1.52305922,3,1
HBAN9,Hangar à Bananes,47.19909783,-1.57278491,4,1
OMRL1,Orvault Morlière,47.24689068,-1.60352386,0,1
OGV99,Orvault Grand Val,47.26296904,-1.59451468,3,1
PLCL2,Polyclinique,47.22798443,-1.6117596,3,1
HARO2,Harouys,47.21668123,-1.56708874,3,2
TMLI1,Tourmaline,47.22139024,-1.63245521,0,1
PVTO1,Porte de Vertou,47.1809041,-1.50520245,3,1
BNDA2,Brindais,47.13893567,-1.71820118,3,2
MNOT1,Minoterie,47.21691867,-1.72158946,3,1
FRA58,Frachon,47.21942578,-1.62211129,3,1
RNAN2,Renan,47.216309,-1.61353784,3,1
PTEC1,Polytech,47.28083556,-1.51355829,3,2
TROC1,Trocardière,47.18322148,-1.56970596,0,1
BOSI3,Boissière,47.25521779,-1.56576739,3,2
MZUR1,Mazure,47.2571401,-1.48014552,3,2
IMPR1,Imprimeurs,47.2386529,-1.67006504,3,2
QANT2,Quai des Antilles,47.20370768,-1.56948729,3,1
EGLI2,Égalité,47.20947084,-1.58881693,0,1
CNVR1,Chêne Vert,47.28625856,-1.43946571,3,2
IDLO1,Îles de Loire,47.21077207,-1.49031802,3,1
MAI81,8 Mai,47.18950295,-1.55130764,0,1
PRDI2,Praudière,47.2573476,-1.58375459,3,2
GRZI1,Grezillières,47.21419263,-1.47885695,3,1
STBS2,Stade,47.19128888,-1.70794766,3,1
CQGU2,Chat qui Guette,47.1919537,-1.69713186,3,1
FRGA2,Frégate,47.23522526,-1.47604011,3,2
HODI3,Hôtel Dieu,47.2128311,-1.55213701,3,1
OMRL5,Orvault Morlière,47.24673065,-1.60398956,3,1
CTLI1,Courteline,47.23642701,-1.58692349,3,1
BRCH1,Bréchetière,47.28468842,-1.50339577,3,2
CORA1,Conraie,47.26082892,-1.5882502,3,1
CLNA2,Colonac,47.22417649,-1.60317287,3,1
TEN59,Tertre,47.21493663,-1.60855999,3,1
TBLY2,Tabarly,47.19550964,-1.54890169,3,1
PONT2,Pontereau,47.30646398,-1.37895717,3,2
SRTR2,Sartre,47.21460448,-1.64093954,3,2
CGLA2,Chêne Gala,47.18392541,-1.53980805,3,1
MRGE1,Morges,47.16489487,-1.47208158,3,1
GIQU2,Gicquelière,47.25814838,-1.45911658,3,1
LMIC2,Louise Michel,47.21934831,-1.61342251,3,2
BBRE2,Barbinière,47.15984337,-1.48162038,3,1
MITR4,Mitrie,47.22886956,-1.5269491,3,1
GESV1,Gesvrine,47.2700938,-1.55195667,3,1
FMIT4,François Mitterrand,47.222051,-1.63850263,3,1
FRKL1,Franklin,47.22577778,-1.61966466,3,1
MNEF1,Moulin Neuf,47.23017282,-1.516373,3,2
PVTO5,Porte de Vertou,47.18071125,-1.5056919,3,1
SILL3,Sillon de Bretagne,47.24564217,-1.60879658,3,2
BLSL1,Bellevue,47.23532809,-1.47369243,3,2
MDTH1,Médiathèque,47.21120415,-1.56059839,0,1
MDTH4,Médiathèque,47.21027441,-1.56249611,3,2
CSCL1,Cimetière St-Clair,47.21659616,-1.59238548,3,1
META1,Métairie,47.2139753,-1.6994466,3,1
CORA2,Conraie,47.26089554,-1.58840988,3,1
DAVU2,Davum,47.26471035,-1.4962344,3,2
COTA1,Coutancière,47.30617449,-1.56007737,3,1
CVER4,Chapeau Verni,47.18915303,-1.50898383,3,2
LDAS1,Landas,47.16932388,-1.51074929,3,2
CBRD2,Claude Bernard,47.22316702,-1.61193154,3,1
BALI4,Balinière,47.18479616,-1.55413119,3,1
BDOU1,Bd de Doulon,47.22471553,-1.51977559,0,1
POLE2,Poulenc,47.25537983,-1.58109813,3,2
BEDR2,Bel Endroit,47.1547097,-1.63398011,3,2
LON58,Longchamp,47.23484735,-1.58199414,3,2
MVSI2,Mauvoisins,47.19003425,-1.52552799,3,1
HODI6,Hôtel Dieu,47.21245029,-1.55338619,3,1
FALI2,Fallières,47.22494819,-1.57947086,3,1
CURI2,Curie,47.19052929,-1.48742009,3,2
GALH1,Galheur,47.16657761,-1.58086931,3,2
PISE3,Pin Sec,47.243291,-1.51889467,3,2
EINS2,Einstein,47.26395315,-1.57085335,3,1
JCAR1,Jacques Cartier,47.22389662,-1.63622818,3,1
CMLL1,Charmille,47.25716925,-1.60594969,3,1
DAKK3,Danemark,47.26174097,-1.49748205,3,2
CGLA1,Chêne Gala,47.18316762,-1.5392023,3,1
SRNI1,Les Sorinières,47.15912062,-1.51811864,3,1
RABI2,Rabine,47.26111004,-1.64378223,3,2
UBRU1,Usine Brûlée,47.19496069,-1.63203466,3,1
CHZY1,Chanzy,47.22414608,-1.54489751,3,1
SINI2,Sinière,47.22569653,-1.67781328,3,1
JHDI2,Jahardières,47.12530215,-1.64288299,3,2
MBSE1,Moulin Boisseau,47.28841846,-1.48416682,3,2
RCAS6,René Cassin,47.26408889,-1.57633426,3,1
SVDI2,Solvardière,47.2180674,-1.64230619,3,1
NOHH2,North House,47.19581698,-1.57341211,3,2
ARCA2,Arcades,47.21202199,-1.65360536,3,1
LMRI2,Lamoricière,47.21454338,-1.57257844,3,1
BDSP2,Bd des Sports,47.16564624,-1.46885999,3,1
LUNI2,Lieu Unique,47.21584309,-1.54529314,3,2
LZCA2,Lusançay,47.20271247,-1.58261457,3,1
VEND2,Vendée,47.2082524,-1.46860707,3,1
LLGR3,Léo Lagrange,47.2969125,-1.5559861,3,2
LITT2,Littré,47.21780088,-1.58231866,3,1
TMET2,Trois Métairies,47.17652603,-1.5016918,3,1
VDUR1,Verdure,47.19589733,-1.65347091,3,2
PCVO2,Pontecorvo,47.2461344,-1.53265908,3,1
GMTL1,Germaine Tillon,47.26627216,-1.51378206,3,2
PCZI2,Pont de Chézine,47.23806128,-1.61441856,3,2
FANE2,Faneurs,47.21374022,-1.7019657,3,1
BTLE1,Bouteillerie,47.22148019,-1.54350501,3,1
RAZA2,Ranzay,47.25317378,-1.53013671,0,1
LANA2,Launay,47.26551981,-1.63233563,3,1
MPAU1,Marcel Paul,47.24603463,-1.61650898,0,1
KOUF2,Koufra,47.24935655,-1.53009212,3,1
COCH2,Cochard,47.22402387,-1.55052864,3,1
VDNI1,Ville au Denis,47.16233197,-1.62748913,3,2
FDDR2,Fac de Droit,47.24378548,-1.5521239,3,1
OGVA2,Orvault Grand Val,47.26173101,-1.59193894,0,1
PTNE1,Platanes,47.24556122,-1.52466351,3,1
RLEA2,Rouleaux,47.20010418,-1.46605219,3,1
MARR2,Maison d'Arrêt,47.26695268,-1.50303849,3,1
LBOS2,La Brosse,47.33307029,-1.56986226,3,2
BNET1,Bignonnet,47.17551899,-1.46509599,3,2
BTEC2,Bretéché,47.22529184,-1.54860985,3,1
BOSI4,Boissière,47.25485356,-1.56596437,3,1
TROC2,Trocardière,47.18322818,-1.57027848,0,1
ECHO4,Échoppes,47.14298507,-1.68644233,3,1
CLAM2,Clos Ami,47.21222086,-1.65566514,3,1
MPAU2,Marcel Paul,47.24573923,-1.61590384,0,1
PROU5,Pont Rousseau - Martyrs,47.19240705,-1.54755996,3,1
SPHI1,Saphirs,47.20490914,-1.65791502,3,1
PTVI1,Patis Viaud,47.13860338,-1.45757987,3,2
MSHE3,Mairie de St-Herblain,47.21153455,-1.64897687,3,1
VEPR1,Vesprées,47.24605605,-1.50223626,3,1
MASS1,Massigné,47.29892681,-1.57950986,3,2
TPOD2,Tripode,47.20818082,-1.54062154,3,1
CVBL1,Cheveux Blancs,47.26553292,-1.6350425,3,2
JPTR2,Jupiter,47.28486843,-1.45601448,3,2
CDAN2,Chêne des Anglais,47.26138541,-1.57300476,0,1
GTAE2,Grootaers,47.23937755,-1.58507292,3,1
MRR97,Marrière,47.23756781,-1.52539554,3,2
CRAI1,Clairais,47.27555119,-1.43856757,3,1
TENA1,Tertre,47.21441622,-1.6079228,0,1
LAN99,Launay,47.26514142,-1.63139587,3,2
LSOU1,La Source,47.30569067,-1.55164194,3,1
BBON2,Boisbonne,47.2868515,-1.50862194,3,2
MOUT1,Moutonnerie,47.21956936,-1.53301942,0,1
PRTE1,Portereau,47.16825014,-1.50160574,3,1
HLLR1,Hillière,47.28774888,-1.43001755,3,2
JOTE1,Jouetterie,47.13146095,-1.66248403,3,2
MRAI2,Maraîchers,47.18464736,-1.51054005,3,1
CTLI2,Courteline,47.23661613,-1.58692414,3,1
AESP2,Aérospatiale,47.16134225,-1.58704692,3,2
JJCE2,Jean Jaurès,47.30120667,-1.54976116,3,2
SOUI5,Souillarderie,47.23828864,-1.51626081,3,1
BAIR1,Bel Air,47.22575662,-1.55968206,3,1
SJAC2,St-Jacques,47.19615315,-1.5378712,3,1
PAMI2,Palmiers,47.19014359,-1.53300479,3,2
REFR2,Réfractaires,47.30277568,-1.54751061,3,1
MCCO2,Marché Commun,47.26038945,-1.49980212,3,2
LCSE2,La Close,47.24169824,-1.57362721,3,1
MRDI1,Maison Radieuse,47.18828616,-1.56693899,3,1
PRSS2,Pressoir,47.12355727,-1.63869276,3,2
BSE10,Beauséjour,47.23791822,-1.58611247,3,1
ATAR1,Antarès,47.28166503,-1.45965683,3,2
BIEE4,Belle Île,47.22289203,-1.73054707,3,1
PRFO2,Profondine,47.19619413,-1.48859121,3,2
PVIL2,Petit Village,47.2170049,-1.65126032,3,2
HLAN2,Haute Lande,47.15391657,-1.52368298,3,1
LOIR1,Loire,47.24830526,-1.48661076,3,1
PIRC1,Pirmil,47.19619167,-1.54256095,0,1
GAIL2,Garillère,47.19241701,-1.5212657,3,1
NONO2,Noë Nozou,47.13020096,-1.63697621,3,1
PAON1,Papillons,47.1468399,-1.51917297,3,1
CLZE2,Clouzeaux,47.17944718,-1.49261766,3,2
GLEI2,Grolerie,47.17283783,-1.47248147,3,1
HVNA2,Hôtel de Ville,47.21775661,-1.55425189,3,2
PTEC2,Polytech,47.28072041,-1.51387821,3,2
GGNO1,Grignon,47.2163381,-1.46626223,3,1
BSEJ9,Beauséjour,47.23801391,-1.5865559,3,1
BISS2,Bossis,47.21248221,-1.71219766,3,2
GRZI2,Grezillières,47.21439055,-1.47829212,3,1
FMIT1,François Mitterrand,47.22203468,-1.63790515,0,1
LCAR1,Le Cardo,47.26173488,-1.58454604,0,1
CRCE1,Courocerie,47.25177254,-1.49936106,3,1
BDAN2,Bd des Anglais,47.22641956,-1.58332296,3,1
MDOU3,Mairie de Doulon,47.22700082,-1.51871473,3,2
DAYA2,Dayat,47.20197925,-1.67711382,3,2
LMNE3,Lemoine,47.23527927,-1.5463905,3,1
CMCI2,Clémencière,47.26952687,-1.43552097,3,1
LDRE4,Landreau,47.23154543,-1.51604876,3,2
MDA71,Maison des Arts,47.21150745,-1.61663464,3,2
VVRE2,Vièvre,47.1980557,-1.81437125,3,1
BHAR1,Bois Hardy,47.19828491,-1.60054396,3,1
BTLE2,Bouteillerie,47.22169095,-1.54280905,3,1
FFAU2,Félix Faure,47.22700593,-1.5694196,0,1
JLVE1,Joliverie,47.18965588,-1.51724841,3,1
PTRE2,Portereau,47.19323488,-1.47731147,3,1
LBOS1,La Brosse,47.33298,-1.56960262,3,2
FLRI1,Floride,47.2135258,-1.60362056,3,1
OGVA5,Orvault Grand Val,47.26296316,-1.59450234,3,1
MARR1,Maison d'Arrêt,47.26644048,-1.5033285,3,1
MLLI4,Mellinet,47.21120208,-1.57567711,3,1
GDRE2,Guindré,47.23920277,-1.53803053,3,1
BGLA6,Basse-Goulaine,47.21039161,-1.46603522,3,1
CHPO1,Champonnière,47.1640358,-1.50606698,3,2
BALI1,Balinière,47.18625167,-1.55378382,0,1
CLOT1,Clotais,47.19314551,-1.71842177,3,1
ECHO1,Échoppes,47.14399205,-1.6855423,3,1
LRHE1,Les Roches,47.26358828,-1.57938172,3,1
PSEV2,Parc de la Sèvre,47.16478468,-1.48041309,3,2
LRHE3,Les Roches,47.26370581,-1.58016434,3,1
MCUR2,Madame Curie,47.18922899,-1.55555266,3,1
CDAN3,Chêne des Anglais,47.26153847,-1.57308607,3,1
PIRD1,Pirmil,47.19609738,-1.54268626,3,2
FRRR2,Frères Rousseau,47.12611534,-1.62848825,3,1
NLBR2,Noë Lambert,47.23045522,-1.52916333,3,1
DPTE2,Déportés,47.19716038,-1.49228215,3,2
SJPO2,St-Joseph de Porterie,47.26782991,-1.51702879,3,1
RPAR2,Rond-Point de Paris,47.2334348,-1.53640143,3,1
GSAN1,George Sand,47.16578544,-1.54492912,3,1
TERR2,Terray,47.25141986,-1.52673475,3,1
MDPO3,Moulin de Porterie,47.27563432,-1.51329207,3,2
PIAO1,Piano'cktail,47.17481481,-1.60637767,3,1
MOTE3,Motte Rouge,47.22891234,-1.55355476,3,1
SBAI1,St-Blaise,47.16722795,-1.46909917,3,1
PAON2,Papillons,47.14602381,-1.51906803,3,1
CDAN1,Chêne des Anglais,47.26147784,-1.57351956,0,1
PDUC2,Prairie au Duc,47.20424565,-1.5643485,3,1
MICH4,Michelet,47.23453728,-1.55706745,3,1
ECOS1,Écosse,47.2151606,-1.52636361,3,1
RDGO1,Radigois,47.19299621,-1.51795401,3,1
CSIB2,Clos Siban,47.21023072,-1.6464119,3,1
VISO1,Vison,47.24425268,-1.50970482,3,1
HAL59,Haluchère - Batignolles,47.24963011,-1.52289395,3,1
MSOR2,Mairie des Sorinières,47.1488318,-1.5317461,3,1
RMNE3,Romanet,47.2122489,-1.60850853,3,1
LECH2,Lechat,47.20411047,-1.58094203,3,1
SCLE2,St-Clément,47.22212067,-1.54697817,3,1
TRQU1,Terres Quartières,47.13475509,-1.65911052,3,2
BRNI2,Baronnière,47.25953711,-1.60392152,3,1
EDRE1,Erdreau,47.29109897,-1.50125811,3,2
CHSS2,Chaussée,47.17723962,-1.52205834,3,1
SOEC1,Souchais École,47.30363818,-1.49835918,3,1
CHOC2,Chocolaterie,47.24276681,-1.52801535,3,1
GMTL2,Germaine Tillon,47.26635541,-1.5132575,3,2
BNON1,Bignon,47.2493805,-1.598001,0,1
PRMI2,Pyramide,47.20806136,-1.49283352,3,1
LCEE4,La Carrée,47.16870893,-1.54303449,3,1
LPEL3,Le Pellerin,47.20051837,-1.76316109,3,1
PLES1,Plessis,47.30119937,-1.55225106,3,2
TEBS2,Tertre,47.19668838,-1.74451091,3,1
PTGO1,Poitou,47.20924679,-1.46972189,3,2
AUGE1,Augé,47.19498076,-1.51740323,3,2
CMNE2,Commune 1871,47.19932642,-1.49967325,3,1
PBRE2,Petit Breton,47.21317928,-1.59871077,3,1
SLAU1,St-Laurent,47.22332467,-1.59765512,3,1
PPOU2,Pré Poulain,47.27201878,-1.44454493,3,2
BANS2,Bois des Anses,47.2470678,-1.49485997,3,1
MLRA1,Malraux,47.25439837,-1.51747206,3,2
CGAU2,Cimetière Gaudinière,47.24311497,-1.58272698,3,1
MADO2,Mandon,47.16044373,-1.47075359,3,2
MITR2,Mitrie,47.22823984,-1.52652415,3,1
BOVR2,Bouvre,47.17826085,-1.61308193,3,2
SAD59,Santos Dumont,47.25943581,-1.56871464,3,2
FTDO2,Fructidor,47.2394244,-1.56116852,3,2
PBAI1,Parc Bel Air,47.17867461,-1.47488336,3,2
RNIE2,Rinière,47.12863935,-1.63618599,3,2
RSNB1,Rosenberg,47.23568862,-1.65981468,3,2
CTBO1,Coteaux,47.18461412,-1.67017282,3,1
MSLL1,Marseillaise,47.20733321,-1.59096649,3,2
GADO2,Gandonnière,47.30716015,-1.54048583,3,2
MBOU1,Mairie de Bouguenais,47.17897347,-1.61919141,3,2
COCH1,Cochard,47.22454537,-1.54961991,3,1
GRAM1,Grammoire,47.1835049,-1.47264466,3,2
MQDI2,Marquis de Dion,47.29708062,-1.48783384,3,1
PCTI2,Petit Chantilly,47.25456744,-1.60080097,3,1
PSIN2,Pasteur,47.20099051,-1.67881195,3,2
FDLE2,Fac de Lettres,47.24534499,-1.55189608,3,1
LPLE2,La Plée,47.19406263,-1.46209913,3,2
MLLI2,Mellinet,47.21180773,-1.57614305,3,1
SLAU2,St-Laurent,47.22304488,-1.59727625,3,1
TOTR1,Tortière,47.23528367,-1.54965441,3,2
SVIN1,Stévin,47.26003001,-1.63492735,3,1
CHGN1,Châtaigniers,47.22158519,-1.60185563,3,1
OSAN2,Ouessant,47.27004095,-1.44671917,3,2
ELIS2,Eglise,47.1685262,-1.72022138,3,1
SBAI2,St-Blaise,47.16734938,-1.46918571,3,1
MLHE2,Moulin Hérel,47.21959519,-1.63760228,3,1
ARMO2,Armorique,47.27152266,-1.44536593,3,2
RBHI2,René Bouhier,47.20983057,-1.57118465,3,2
LAHA2,La Haie,47.26127481,-1.47513441,3,2
RNIE1,Rinière,47.12902057,-1.63597141,3,2
LMAR2,La Marche,47.18061451,-1.65906019,3,1
MOUT2,Moutonnerie,47.21955608,-1.53341505,0,1
GSNO2,Gare Nord - Jardin des Plantes,47.21786296,-1.54278792,0,1
CPTE1,Chapelet,47.13205641,-1.64156579,3,1
GNRA2,Greneraie,47.19954325,-1.53352982,3,1
HODI4,Hôtel Dieu,47.21232473,-1.55296995,3,1
PMTR1,Pont de la Métairie,47.26243556,-1.44597452,3,1
PRRI2,Perrières,47.30941803,-1.55213445,3,1
CSGR2,Cassegrain,47.18788729,-1.4896028,3,2
MDEL1,Mandel,47.20259358,-1.53712696,3,2
DUTR1,Duguay Trouin,47.2243519,-1.61664783,3,1
IDFR1,Île de France,47.1693945,-1.46782946,3,1
PCPE2,Porte de La Chapelle,47.2598973,-1.55818304,3,1
XREZ2,Croix de Rezé,47.17936782,-1.55903253,3,1
ANGE1,Les Anges,47.27529891,-1.6371169,3,1
LSLL1,Les Salles,47.2502988,-1.53601858,3,2
KOUF3,Koufra,47.25034953,-1.53112554,3,1
DAVU1,Davum,47.26498319,-1.495992,3,2
SNUC1,Stade SNUC,47.22802113,-1.58069543,3,1
MQLI1,Mocquelière,47.23311306,-1.61898277,3,2
CJOS2,Cimetière St-Joseph,47.26818374,-1.52158608,3,1
LLOR2,La Lorie,47.23503261,-1.6565217,3,2
PSPO3,Parc des sports,47.26097802,-1.45051481,3,2
PRMI1,Pyramide,47.20802408,-1.49262732,3,1
BJOI2,Beaujoire,47.25876679,-1.52424813,0,1
TMSS2,Trémissinière,47.23861067,-1.54361195,3,1
BLOR2,Blordière,47.18000736,-1.53389432,3,2
LFER2,La Ferme,47.26421915,-1.68026466,3,1
LIBE1,Libération,47.177552,-1.67879249,3,2
TTMO2,Trentemoult,47.19193109,-1.58140098,3,1
VILE2,Violettes,47.19746803,-1.50924697,3,2
LYBR1,Lycée Brottier,47.1600527,-1.67738403,3,2
OCAN2,Océane,47.22740277,-1.63634184,3,1
RPSI2,Ripossière,47.19220882,-1.53501446,3,2
VTOU2,Vertou,47.16884943,-1.471132,3,1
LFLE1,Laurier Fleuri,47.18740847,-1.48430257,3,2
CTYY2,Coty,47.24901846,-1.4882701,3,1
TENA4,Tertre,47.21392173,-1.60665964,3,2
ARGO1,Argonautes,47.30241995,-1.48191405,3,1
LBPI1,L'Ébaupin,47.17158139,-1.50998036,3,1
AESP1,Aérospatiale,47.16079973,-1.58795401,3,2
HOSE2,Housseau,47.2808166,-1.49849606,3,1
NET10,Neustrie,47.17673263,-1.59404114,3,1
PHVE2,Pré Hervé,47.24364203,-1.51760802,3,2
MBOU2,Mairie de Bouguenais,47.17898229,-1.61877725,3,2
MTRA1,Mortrais,47.12802675,-1.61670813,3,1
LYPE1,Lycée Appert,47.25174247,-1.61132491,3,1
THAT2,Théatre,47.21632528,-1.72866232,3,2
MULI1,Mouline,47.32354309,-1.55300563,3,2
MPMN1,Melpomène,47.27757603,-1.50004475,3,2
CNON2,Chinon,47.27415244,-1.42923,3,2
LLGR2,Léo Lagrange,47.29699658,-1.55533558,3,1
BGLA3,Basse-Goulaine,47.21092041,-1.4648846,3,1
CRME1,Crémetterie,47.21823787,-1.60765992,3,1
LAGE2,Largeau,47.19497816,-1.51087961,3,2
MDRE2,Madoire,47.26510928,-1.63787569,3,2
GCHE9,Gachet,47.29412568,-1.52895472,4,1
SATR1,Sautron,47.26545283,-1.68384141,3,1
PLBL1,Port la Blanche,47.27163332,-1.51662289,3,1
DAKK1,Danemark,47.26096703,-1.49857486,3,2
TBLY1,Tabarly,47.19543571,-1.54882365,3,1
CLUE1,Clouet,47.1674894,-1.51085257,3,2
HBAN1,Hangar à Bananes,47.20028249,-1.57320183,3,1
BAVO1,Basse Orévière,47.22046457,-1.65898404,3,2
LHIE2,La Haie,47.29015052,-1.54255674,3,1
PPTR2,Papotière,47.23991578,-1.4973574,3,1
SEIL2,Seil,47.19434129,-1.57074217,3,2
RPBL4,République,47.20512291,-1.55577299,3,1
EUCA1,Europe,47.26015422,-1.50416415,3,2
VGAC4,Vincent Gâche,47.20587579,-1.54838298,3,1
ARGO2,Argonautes,47.30240342,-1.4818149,3,1
CAHL1,Charlière,47.32101197,-1.55055505,3,2
VGAC1,Vincent Gâche,47.20666724,-1.54841665,0,1
OTAG2,50 Otages,47.21993331,-1.55593842,0,1
POIT2,Poitou,47.22408956,-1.56521787,0,1
SPHI2,Saphirs,47.20499423,-1.65730546,3,1
CRQU3,Place du Cirque,47.2166694,-1.55684175,3,1
LSAL1,La Salle,47.21435046,-1.68910804,3,1
MPTA1,Maison Poitard,47.14664762,-1.64976027,3,2
PJOU1,Point du Jour,47.26489469,-1.44356868,3,1
JLVE6,Joliverie,47.18982268,-1.51928848,3,1
PLSS2,Plessis,47.26034286,-1.66000278,3,1
META2,Métairie,47.21380508,-1.69841717,3,1
GERA2,Géraudière,47.26171012,-1.5672204,3,2
PCBI2,Picabia,47.25451485,-1.57683731,3,2
TTMO1,Trentemoult,47.19147886,-1.58293891,3,2
PISE1,Pin Sec,47.24373676,-1.51808832,0,1
RTSC6,Recteur Schmitt,47.25272066,-1.55330558,3,2
JUME1,Jumelière,47.29430784,-1.48763799,3,2
LPBA1,Bac du Pellerin,47.20293814,-1.75489396,3,2
MDAR3,Maison des Arts,47.21111037,-1.61817959,3,1
CNAV1,Chantiers Navals,47.20891551,-1.56730464,0,1
AGVI1,Angevinière,47.24515933,-1.6123771,3,1
FACU2,Facultés,47.24565523,-1.55540772,0,1
PETR1,Pétrels,47.254233,-1.50709866,3,2
GRIM2,Grimm,47.21608583,-1.6466601,3,1
GAUT2,Gautellerie,47.1774718,-1.6021692,3,1
OQNE1,Ouche Quinet,47.19604002,-1.50445619,3,2
SINI1,Sinière,47.22547956,-1.67845679,3,1
FNLL1,Fresnel,47.24296311,-1.5232843,3,2
GURO3,Gustave Roch,47.20359881,-1.55204364,3,1
JDGA1,Jardins de Gaïa,47.15728414,-1.67822636,3,2
PIRF1,Pirmil,47.19691452,-1.54278645,3,1
CBEA3,Charbonneau,47.3008963,-1.48841022,3,2
XSYY1,Croisy,47.2541236,-1.62763862,3,2
MTYY3,Monty,47.27422207,-1.43297169,3,2
DRID1,Druides,47.23863028,-1.50740147,3,1
CNGO1,Congo,47.24067949,-1.60913535,3,1
SALE1,Salentine,47.24848662,-1.61026837,3,1
JFER2,Jules Ferry,47.25085808,-1.48743878,3,2
PRFO1,Profondine,47.19607639,-1.48844802,3,1
SILL1,Sillon de Bretagne,47.24558721,-1.60890231,0,1
LRHE2,Les Roches,47.2631191,-1.5803079,3,1
XBON1,Croix Bonneau,47.20964652,-1.59515578,0,1
JJCE1,Jean Jaurès,47.30127559,-1.5498006,3,2
FRRR1,Frères Rousseau,47.12618961,-1.62858085,3,2
BULA1,Butte des Landes,47.16038055,-1.49421494,3,2
BLVU4,Mendès France - Bellevue,47.20897015,-1.61143372,3,1
GMOL3,Guy Mollet,47.24944492,-1.55517566,3,2
RSNB2,Rosenberg,47.23563267,-1.65976553,3,2
CHME1,Charmes,47.19080176,-1.46099838,3,1
THCE2,Centre de Thouaré,47.26657767,-1.44159597,3,1
BCNY1,Bas-Chantenay,47.19827246,-1.58919017,3,1
RNLT1,Renault,47.26330519,-1.49542716,3,2
CMOU1,Clos du Moulin,47.1451351,-1.52115717,3,1
BOLL2,Bois Tillac,47.20017883,-1.77127662,3,2
PAJO1,Petit Anjou,47.20582906,-1.50456545,3,1
PBOT2,Poulbot,47.21324801,-1.64836954,3,1
MNFA2,Manufacture,47.2186977,-1.53773253,0,1
CANC2,Canclaux,47.21383536,-1.57489018,3,1
TJOI1,Toutes Joies,47.22110137,-1.57297174,3,2
ERDI4,Éraudière,47.24304181,-1.53487936,3,2
RPAR3,Rond-Point de Paris,47.23402862,-1.53649997,3,1
JTIC2,Justice,47.20944622,-1.63163529,3,1
GLOU2,Grange au Loup,47.26364531,-1.51568852,3,1
BDAN3,Bd des Anglais,47.22672232,-1.5829485,3,1
CMRA1,Cormerais,47.19475932,-1.62707891,3,1
TBER1,Tristan Bernard,47.20510511,-1.46431158,3,2
MDSI1,Mondésir,47.21781799,-1.56881354,3,2
LEBP1,L'Ebaupin,47.2842875,-1.44388449,3,2
GIBR2,Gibraye,47.20497394,-1.5175507,3,1
KERE1,Keren,47.24476601,-1.53331261,3,1
MOZI2,Monzie,47.20317728,-1.53961542,3,2
FBAU1,François Baudry,47.26250071,-1.67303819,3,1
MIMO2,Mimosas,47.24131235,-1.58760993,3,2
SYRM1,Syrma,47.27691233,-1.47059786,3,2
LYRI2,Lycée Rieffel,47.25545605,-1.64243254,3,1
MNFA1,Manufacture,47.21878485,-1.53712282,0,1
CVNI1,Chauvinière,47.25146581,-1.57206508,3,1
ESCA1,Escall,47.19937368,-1.50285072,3,1
MROT2,Moulin Rothard,47.19588722,-1.74111289,3,1
PSME1,Place St-Méen,47.31926513,-1.3473936,3,2
LFLE3,Laurier Fleuri,47.18785036,-1.48336175,3,1
BVDI1,Bouvardière,47.23848469,-1.59837766,3,2
RCAS4,René Cassin,47.26473866,-1.57401214,3,1
GOLF1,Golf,47.2365008,-1.60490733,3,2
GAIL1,Garillère,47.19249604,-1.52068079,3,1
CSTE2,Casterneau,47.22708303,-1.53271152,3,1
MRR99,Marrière,47.23720887,-1.52463041,3,1
RUET1,Ruette,47.23348776,-1.51080036,3,1
BILE1,Basse Île,47.19596508,-1.56213284,3,2
RREN2,Rond-Point de Rennes,47.23262166,-1.56524264,3,1
VARI1,Vincent Auriol,47.22180356,-1.59207915,3,1
TRCA2,Tréca,47.25023231,-1.50139595,3,2
PCDI1,Picaudière,47.27967119,-1.48513609,3,1
HAVE4,Halvêque,47.25890986,-1.51948668,3,1
PIRA1,Pirmil,47.19635779,-1.54254921,3,1
NBLA2,Noé Blanche,47.25760802,-1.50781756,3,2
BTEC1,Bretéché,47.22593127,-1.54751529,3,1
LFAU1,Les Faulx,47.15741869,-1.52257139,3,1
CDMA2,Champ de Manoeuvre,47.27230007,-1.49991344,3,2
TRNE1,Tribunes,47.2491223,-1.56852876,3,1
ZOLA1,Zola,47.21377298,-1.58610552,3,2
SAVA4,Savarières,47.2080728,-1.48918133,3,2
LBPI2,L'Ébaupin,47.17159737,-1.50982566,3,1
GGUI1,Gauguin,47.16666708,-1.55469861,3,1
BOND2,Bonde,47.22257673,-1.55209719,3,1
GERA4,Géraudière,47.26292754,-1.56770755,3,2
GCSO1,Glacisol,47.25165414,-1.50459584,3,1
ESCA2,Escall,47.19945444,-1.50331902,3,1
PTRE1,Portereau,47.19209512,-1.47585618,3,1
DROI1,Droitière,47.30820485,-1.37310032,3,2
MALL1,Mail,47.26905318,-1.61162839,3,2
DALB1,Dalby,47.22513188,-1.52982307,3,2
HCOU1,Hauts de Couëron,47.24055434,-1.66962425,3,2
ECBU2,Écobuts,47.19395228,-1.50758981,3,2
AECL1,Aéroclub,47.15932625,-1.59829534,3,2
GVNO1,Gare de Vertou Nord,47.18700435,-1.47831683,3,1
MSSI2,Mississipi,47.23705873,-1.6092927,3,2
GRVI2,Guerivières,47.2051795,-1.46732471,3,2
PGTI1,Plinguetière,47.13292769,-1.61368947,3,1
MLNE2,Moulinets,47.20994213,-1.62921352,3,1
LCSE1,La Close,47.2408716,-1.57271903,3,1
MDSI2,Mondésir,47.21771408,-1.56906241,3,2
TRNE2,Tribunes,47.24997745,-1.56870233,3,1
MNOT2,Minoterie,47.21682889,-1.72160645,3,1
CMOU2,Clos du Moulin,47.14516318,-1.52131364,3,1
SLCE1,Ste-Luce,47.25034078,-1.4848953,3,1
GAGN1,Gagnerie,47.23223866,-1.50712589,3,1
RBNI2,Robinière,47.16477959,-1.53617714,3,2
CLET1,Clétras,47.25544747,-1.51078671,3,2
PPSI2,Petit Plessis,47.30151645,-1.38647413,3,2
SILL2,Sillon de Bretagne,47.24560621,-1.60839978,0,1
CTRE2,Chantrerie - Grandes Écoles,47.28163711,-1.51695782,3,1
CMSY1,Carrière Misery,47.19982789,-1.58022151,3,2
MALL2,Mail,47.26906222,-1.61136441,3,2
JPTR1,Jupiter,47.28437682,-1.45579165,3,2
PBFF1,Paimboeuf,47.17633603,-1.62053282,3,1
CDAN5,Chêne des Anglais,47.26141504,-1.57454825,3,1
VIVI2,Viviers,47.17294002,-1.48407711,3,1
FADI1,Fardière,47.19849292,-1.60689188,3,1
HFVE2,Haute Forêt,47.16798217,-1.46537972,3,1
GLDE2,Grande Lande,47.19222248,-1.49755349,3,2
XBON2,Croix Bonneau,47.20964339,-1.59580189,0,1
EVET2,École Vétérinaire,47.29088669,-1.523448,3,1
HMLL1,Houmaille,47.18902365,-1.58693163,3,2
RDIE2,Rouaudière,47.29424103,-1.58456632,3,2
MAAR2,Maillardière,47.27390876,-1.63411928,3,1
CVDO2,Cimetière Vieux Doulon,47.23848075,-1.50061605,3,1
HAL98,Haluchère - Batignolles,47.24916098,-1.52334816,3,1
CLBO1,Clos Bonnet,47.18943855,-1.56392208,3,2
DMAI2,Domaine,47.17842274,-1.46972715,3,2
RTSC5,Recteur Schmitt,47.25317113,-1.55287405,3,2
LCOG1,La Cogne,47.28761252,-1.55675793,3,1
OMRL4,Orvault Morlière,47.24705784,-1.6034555,3,1
PTPS1,Printemps,47.18848044,-1.50028186,3,2
LMRI1,Lamoricière,47.21444879,-1.57239308,3,1
BDRI1,Bourderies,47.2066332,-1.59590977,3,1
TMET1,Trois Métairies,47.17637454,-1.50156206,3,1
PCLO2,Petit Clos,47.20528749,-1.51000057,3,1
SEIL1,Seil,47.19384989,-1.57081068,3,2
BCGA3,Bd Charles Gautier,47.22282066,-1.6071583,3,1
SLDA3,Solidarité,47.21716363,-1.58746721,3,1
GMAR2,Gare Maritime,47.20706572,-1.57338159,0,1
JAL98,Jalière,47.26429759,-1.59694372,3,1
BIGN1,Bignons,47.19972366,-1.49352665,3,2
PHTR2,Parc Chantrerie,47.28615181,-1.52092464,3,1
MTEI2,Monteil,47.21413456,-1.54895359,3,1
LALL2,Lallié,47.22673376,-1.54641933,3,1
CFOI2,Champ de Foire,47.12460773,-1.61856478,3,1
BDOU2,Bd de Doulon,47.22432181,-1.52018349,0,1
FDDR3,Fac de Droit,47.24375317,-1.5519602,3,1
MONE3,Moinet,47.26466932,-1.49239861,3,2
BEDR1,Bel Endroit,47.15324025,-1.63553094,3,2
FRAC1,Frachon,47.21898135,-1.62020775,0,1
MDOU2,Mairie de Doulon,47.22664991,-1.5188124,0,1
MLON2,Mulonnière,47.26553025,-1.54995093,3,1
CMUS1,Camus,47.21916021,-1.57268578,3,1
MSHE1,Mairie de St-Herblain,47.21088261,-1.64876308,3,1
LFLE4,Laurier Fleuri,47.18839405,-1.48369649,3,1
POIT1,Poitou,47.2243849,-1.56556597,0,1
BDOU3,Bd de Doulon,47.22439761,-1.52020614,3,1
NRDA4,Neruda,47.21729976,-1.61288127,3,1
BUSS2,Buisson,47.25993503,-1.48761317,3,2
MCUR1,Madame Curie,47.18913046,-1.55431015,3,1
CCDI2,Cochardières,47.22908017,-1.63439971,3,2
VDUR2,Verdure,47.19547374,-1.65327018,3,1
TOSC2,Toscane,47.28325066,-1.54836778,3,1
APAV1,Apave,47.2257024,-1.64766184,3,1
ROET1,Rouet,47.14822135,-1.52146259,3,1
PSEV1,Parc de la Sèvre,47.16437291,-1.47922297,3,2
AFRA2,Anatole France,47.22367057,-1.57162985,3,2
VISO2,Vison,47.24443506,-1.50990707,3,1
COME3,Commerce,47.21446117,-1.55574253,3,1
PISE2,Pin Sec,47.24339597,-1.51807169,0,1
SNIC2,St-Nicolas,47.2155727,-1.56045659,3,1
VCSO2,Vaucanson,47.2127483,-1.58133128,3,1
CCOU2,Champ de Courses,47.2449901,-1.56192605,3,1
MKSU2,Malakoff,47.2160073,-1.5212523,3,1
RABI1,Rabine,47.26141125,-1.64348447,3,2
GMDR2,Grimaudière,47.29441964,-1.54533963,3,2
BLEM1,Belem,47.26561338,-1.45301035,3,2
CSIB1,Clos Siban,47.21016184,-1.64590316,3,1
CRPO1,Criport,47.15788894,-1.50358065,3,2
SSEB1,St-Sébastien,47.20751919,-1.50290124,3,1
FERI4,Ferrière,47.2444801,-1.59072969,3,1
FERI1,Ferrière,47.24341423,-1.59150713,0,1
CTOR2,Clos Toreau,47.1941152,-1.52907028,3,1
AMER1,Américains,47.23607974,-1.56826271,3,1
SJEA1,St-Jean,47.19173674,-1.52363987,3,2
GRMA2,Grimau,47.22832018,-1.65486489,3,2
BIAN1,Aristide Briand,47.29642182,-1.4949896,3,1
HALE2,Haluchère - Batignolles,47.24871997,-1.5222357,0,1
SCLE1,St-Clément,47.2222373,-1.54667067,3,1
HILE1,Haute Île,47.19391139,-1.55545183,3,2
SFRA1,San Francisco,47.21769021,-1.51647205,3,1
MNIE1,Moulinier,47.13542018,-1.6657614,3,2
LGAR1,La Garde,47.25528696,-1.50844302,3,2
GLIE3,Gilière,47.2997578,-1.55277499,3,1
LGTH1,Lagathu,47.18036592,-1.53654374,3,1
MLCH1,Morlachère,47.16175731,-1.48259534,3,2
RTPA1,Route de Paris,47.26670738,-1.48580083,3,1
JMAC2,Jean Macé,47.20054535,-1.5892829,3,1
BGLA5,Basse-Goulaine,47.21053568,-1.46611815,3,1
GRET1,Gare de l'État,47.20400222,-1.56017697,3,1
CRPO2,Criport,47.15833439,-1.50356505,3,2
PDCE3,Pont du Cens,47.24893386,-1.57703594,3,1
PPDO2,Pompidou,47.2093962,-1.52752557,3,1
JBNA1,Jeanne Bernard,47.23527429,-1.59133638,3,1
LFVR2,Lefeuvre,47.26684117,-1.49504293,3,2
XTRU2,Croix Truin,47.1913404,-1.7117374,3,1
BLZZ3,Berlioz,47.23967399,-1.5715153,3,1
WATT2,Wattignies,47.20379747,-1.54642021,0,1
MBRU1,Moulin Brûlé,47.25967731,-1.6551887,3,2
DOC99,Doucet,47.27792657,-1.63265892,3,1
HALF1,Haluchère - Batignolles,47.2492907,-1.52356254,3,1
ATAR2,Antarès,47.28170935,-1.45976056,3,2
HDIE2,Haudrière,47.15448516,-1.4676472,3,2
GCAR2,Grand Carcouët,47.23156749,-1.59288364,3,1
BDOU6,Bd de Doulon,47.2238294,-1.51977252,3,1
TZEL2,Touzelles,47.20853891,-1.46655776,3,1
SAVA1,Savarières,47.20862083,-1.48968309,3,1
OLVE1,Oliveraie,47.18796569,-1.53045998,3,2
ADEL3,Aimé Delrue,47.20917361,-1.5500512,3,2
CRQU1,Place du Cirque,47.21711901,-1.55710316,0,1
ONCH1,Onchères,47.20272376,-1.46709862,3,2
PMAR2,Pont Marchand,47.260635,-1.63127171,3,1
GULO3,Guilloterie,47.16986818,-1.5604216,3,1
PALL2,Pont Allard,47.19678084,-1.66642936,3,1
BGVI1,Bougainville,47.198978,-1.58357404,3,2
ABOL2,Adrienne Bolland,47.26792095,-1.47680712,3,1
TLSA1,Talensac,47.22152613,-1.55603184,3,2
CTEU2,Caboteurs,47.18646655,-1.58743518,3,2
GMDR9,Grimaudière,47.29204395,-1.53587026,4,1
NRCA2,Noë Rocard,47.16336555,-1.4906055,3,2
NIZA2,Nizan,47.20559816,-1.55135367,3,1
CTIE1,Châtelier,47.18466462,-1.59313067,3,2
HREG1,Hôtel de Région,47.21032136,-1.52625744,3,1
GBNI1,Guiblinière,47.2922913,-1.52033411,3,2
VDNI2,Ville au Denis,47.16275335,-1.62704885,3,1
LSOU2,La Source,47.3055403,-1.55172103,3,1
BOFA1,Bouffay,47.21459782,-1.55209491,0,1
TDGA2,Tredégar,47.25472192,-1.60366184,3,1
BAVO2,Basse Orévière,47.22038027,-1.65886933,3,2
TPCH1,Terpsichore,47.28240769,-1.50232396,3,1
PAPO2,Parc Potager,47.23613124,-1.52273436,3,1
TBAU2,Thébaudières,47.31063395,-1.35899287,3,1
CHER1,La Cochère,47.20271109,-1.77821459,3,2
MAI82,8 Mai,47.18927594,-1.55168223,0,1
LSLL2,Les Salles,47.2503831,-1.53608288,3,2
MBLA1,Mont Blanc,47.1767804,-1.55588276,3,2
PREU2,Preux,47.22113951,-1.61243234,3,1
BLOR1,Blordière,47.17994075,-1.53381289,3,2
PTNE2,Platanes,47.24528935,-1.52514381,3,1
PLGU2,Pouliguen,47.24028613,-1.54221267,3,2
QTNE2,Quintaine,47.21669592,-1.46245832,3,1
PRZE1,Porte de Rezé,47.15714857,-1.54076842,3,1
MVSI1,Mauvoisins,47.19026369,-1.52556172,3,1
LMNE2,Lemoine,47.23540151,-1.54752074,3,2
SBLL1,Sébilleau,47.20512652,-1.53183756,3,1
CZIN1,Chézine,47.23375586,-1.59901753,3,2
SFE58,St-Félix,47.23120426,-1.55660399,3,2
AURR1,Aurore,47.26488128,-1.58093056,3,2
LONG2,Longchamp,47.23491246,-1.58217215,0,1
GRPO2,Gripots,47.19246983,-1.49176824,3,1
ALDE1,Allende,47.17543375,-1.62390587,3,1
TENA2,Tertre,47.2147524,-1.60831111,0,1
CANC3,Canclaux,47.21488652,-1.57470265,3,1
ECSU6,École Centrale - Audencia,47.24795904,-1.55193937,3,1
UTCH1,Utrecht,47.2833362,-1.5521117,3,2
GDCH2,Gare de Chantenay,47.19775749,-1.59367446,3,1
MLLI3,Mellinet,47.21177064,-1.57792477,3,1
AGBE2,L'Angebert,47.14069622,-1.45556468,3,2
BOVR1,Bouvre,47.17803178,-1.61246001,3,2
SSTA2,St-Stanislas,47.22282061,-1.55698538,3,1
PPLI1,Peupliers,47.19936438,-1.4973965,3,1
FERI2,Ferrière,47.2430916,-1.59164478,0,1
MGUA1,Mainguais,47.2826893,-1.4854843,3,1
PPDO1,Pompidou,47.2092174,-1.5282647,3,1
MGNO1,Mignonnerie,47.24369334,-1.48304615,3,2
EPEL1,Écoles,47.19778954,-1.75932156,3,1
VALL1,Vallée,47.25084294,-1.57662145,3,1
MDPO4,Moulin de Porterie,47.27552401,-1.51344028,3,2
EUCA2,Europe,47.26112678,-1.50278804,3,2
CHBE1,Chambelles,47.23162916,-1.53062861,3,1
PMTR3,Pont de la Métairie,47.26250081,-1.44730738,3,1
LCAR3,Le Cardo,47.26176443,-1.58423332,3,1
CSCL2,Cimetière St-Clair,47.2168196,-1.593704,3,1
ESAV2,ESAT Vertonne,47.18416052,-1.48200199,3,1
JNIG1,Jean Ingres,47.22213834,-1.59602236,3,1
GIQU1,Gicquelière,47.25810214,-1.45838705,3,1
NBLA1,Noé Blanche,47.25656666,-1.50720295,3,2
HALF2,Haluchère - Batignolles,47.24915172,-1.52332897,3,1
SYRM2,Syrma,47.27709802,-1.47037422,3,2
RTSC2,Recteur Schmitt,47.25178107,-1.55256392,0,1
DEMO2,Desmoulins,47.23346032,-1.52126958,3,1
BCGA1,Bd Charles Gautier,47.22207394,-1.60729098,3,1
CHVE2,Chauvais,47.33678097,-1.57361432,3,2
MAGA2,Gare de Mauves,47.29319126,-1.38983847,3,1
FRCH1,Fraîches,47.17450971,-1.48942481,3,1
ISLE1,Islettes,47.26333052,-1.47615418,3,2
EUVE2,Europe,47.17308369,-1.47653653,3,1
MORH2,Morrhonnière - Petit Port,47.24131768,-1.55647405,0,1
MOCT2,Moulin Collet,47.20030957,-1.76609112,3,1
EDIP2,Edith Piaf,47.22833255,-1.6240597,3,1
BISS1,Bossis,47.21256368,-1.71292957,3,2
BHAR2,Bois Hardy,47.19812396,-1.60000881,3,1
WBDT1,Willy Brandt,47.17291989,-1.56315593,3,1
NETR5,Neustrie,47.17679998,-1.59380964,3,1
CBTE2,Choblèterie,47.13621557,-1.46159998,3,2
GMAR4,Gare Maritime,47.20622672,-1.57342205,3,1
MDPO1,Moulin de Porterie,47.27590166,-1.51235192,3,1
BOGE1,Bourgeonnière,47.2532561,-1.56004192,0,1
DOME1,Doumer,47.22183774,-1.57826351,3,2
RNLT2,Renault,47.26341561,-1.49570894,3,1
OMRL2,Orvault Morlière,47.24711624,-1.60306431,0,1
ARO93,Armor,47.23103865,-1.63182642,3,1
CRME2,Crémetterie,47.21827419,-1.60833549,3,1
AGBE1,L'Angebert,47.14056117,-1.45575443,3,2
MCAS2,Moulin Cassé,47.25662153,-1.46847425,3,1
LHPI1,L'Hôpitau,47.27195941,-1.55165176,3,1
NILL2,Nil,47.24164709,-1.60752179,3,1
DOTT2,Douettée,47.20779673,-1.49911086,3,1
BILE2,Basse Île,47.19568871,-1.56324647,3,2
LMTA2,La Montagne,47.18846838,-1.68921079,3,1
CAIO2,Caillou Blanc,47.2989586,-1.58531115,3,1
BATI2,Batignolles,47.25556045,-1.53003021,3,1
CHNI2,Charbonnière,47.26383545,-1.64177553,3,1
MREZ2,Mairie de Rezé,47.19128907,-1.56986003,3,2
LFER1,La Ferme,47.26415792,-1.67941057,3,1
APAV2,Apave,47.22537146,-1.64749042,3,1
VEGE1,Verger,47.29310263,-1.49706413,3,2
STPI1,St-Pierre,47.21813713,-1.5519437,3,1
APER2,Ampère,47.3020421,-1.50792283,3,1
CHVE1,Chauvais,47.33740081,-1.57166574,3,2
BDEL2,Baudelaire,47.23393631,-1.59256577,3,2
AQUI1,Aquitaine,47.20988552,-1.6149736,3,1
CAUX4,Château d'Aux,47.18489247,-1.6744678,3,2
RPAR1,Rond-Point de Paris,47.23432626,-1.53541474,3,1
FFAU4,Félix Faure,47.22774361,-1.57005655,3,1
BOGE4,Bourgeonnière,47.25294296,-1.5613128,3,1
MTEI1,Monteil,47.2139689,-1.5495126,3,1
BSEJ1,Beauséjour,47.23829509,-1.58726553,0,1
FOTA1,Fontaine,47.20538867,-1.48935154,3,1
RLON2,Rennes - Longchamp,47.23798111,-1.56985623,3,1
MGEL1,Margelle,47.27275502,-1.59419306,3,2
BGOG2,Bourgogne,47.24634147,-1.5892845,3,1
BGCY1,Beaugency,47.20327126,-1.48997589,3,1
MRRI2,Marrière,47.23752857,-1.52430835,3,2
BNON2,Bignon,47.24908175,-1.59775547,0,1
ARMO1,Armorique,47.27143538,-1.44489664,3,2
FRET2,Forêt,47.24427002,-1.57552805,3,1
VEAG1,Véga,47.28002103,-1.46358168,3,2
SEC59,Schoelcher,47.22049773,-1.62761106,3,1
PBFF2,Paimboeuf,47.17660364,-1.61914048,3,1
BRLN1,Berlin,47.21653641,-1.53622373,3,1
SAIG2,St-Aignan,47.2082226,-1.5783829,3,1
IROI1,Iroise,47.24834655,-1.53641021,3,1
MGAL2,Marie Galante,47.26410837,-1.45081994,3,2
LRAY1,Le Gray 1,47.28419403,-1.58684812,3,2
TRIA1,Trianon,47.27323928,-1.43047033,3,1
FALI1,Fallières,47.22500874,-1.57938539,3,1
PSCE2,Plaisance,47.24007584,-1.59112436,0,1
EDIP1,Edith Piaf,47.228059,-1.62368509,3,1
PMA99,Pont Marchand,47.26141392,-1.63206252,3,1
CSHB2,Carrières,47.20822281,-1.63804499,3,1
LYOR2,Lycée d'Orbigny,47.15430431,-1.68042474,3,1
HREG2,Hôtel de Région,47.21037247,-1.52599546,3,2
MGIN2,Mangin,47.20157572,-1.5450247,0,1
VEXP1,Village Expo,47.21493812,-1.61477308,3,1
RNRE1,Renaudières,47.2994802,-1.50796616,3,1
PELO2,Pelousière,47.20778681,-1.64699264,3,1
LAMA1,Lamartine,47.21652534,-1.57861373,3,1
PISE4,Pin Sec,47.24329205,-1.51862098,3,2
MHUI3,Moulin à l'Huile,47.17725101,-1.56217953,3,1
MGUA2,Mainguais,47.2822718,-1.48552723,3,1
PMEU2,Port aux Meules,47.16581834,-1.49387231,3,2
CRSA2,Croissant,47.24103597,-1.52997054,3,1
BRNI1,Baronnière,47.25962594,-1.60374682,3,1
LYRI1,Lycée Rieffel,47.25543792,-1.64277516,3,1
LACH2,L'Arche,47.21284433,-1.70837557,3,1
PBOT1,Poulbot,47.21405521,-1.64802648,3,1
GSEN2,Grasse Noue,47.2802316,-1.58182434,3,2
LCAR6,Le Cardo,47.26194838,-1.58414759,3,1
PATR1,Patis Rondin,47.24795291,-1.5163554,3,2
DNAI1,Danais,47.21363916,-1.58955897,3,1
CVBL2,Cheveux Blancs,47.26545709,-1.63504746,3,2
BBNI4,Babinière,47.25929789,-1.54625658,3,1
JFER1,Jules Ferry,47.25072688,-1.4875114,3,2
PRNE1,Perrines,47.22755906,-1.51554084,3,2
LYOR1,Lycée d'Orbigny,47.15396925,-1.6809146,3,1
BRG78,Beauregard,47.21084869,-1.65663742,3,2
PSOR2,Prières,47.15039474,-1.52640105,3,1
EPEL2,Écoles,47.19751025,-1.75917066,3,1
LAUR1,Lauriers,47.20465704,-1.60479403,3,1
JANA2,Jaunais,47.17592867,-1.533721,3,1
APRE2,Ambroise Paré,47.22908815,-1.60856584,3,1
RIND2,Rue d'Indre,47.20397715,-1.6642675,3,1
BNVI1,Bonneville,47.24396902,-1.53647537,3,2
LIPP1,Lippmann,47.23834391,-1.52128731,3,2
HALG1,Haluchère - Batignolles,47.24831532,-1.52224353,3,1
MEDI2,Méditerranée,47.27024599,-1.485825,3,2
CTOR3,Clos Toreau,47.1941226,-1.52930601,3,2
MLIN2,Moulin,47.18892125,-1.50534978,3,2
MGIN4,Mangin,47.20169385,-1.54371042,3,2
MONE1,Moinet,47.26579094,-1.49252394,3,2
PTON1,Portillon,47.14970939,-1.46861899,3,2
AURR2,Aurore,47.26539508,-1.58147497,3,2
BTAI1,Bretinais,47.22181316,-1.66588313,3,2
MIND3,Mairie d'Indre,47.20004466,-1.66856734,3,1
GDOU1,Grande Ouche,47.18136054,-1.57917817,0,1
RREN1,Rond-Point de Rennes,47.23247509,-1.5652888,3,1
OTAG3,50 Otages,47.219768,-1.55563291,3,1
MCCO1,Marché Commun,47.25965126,-1.49998198,3,2
AUCP2,La Chapelle Aulnay,47.30836323,-1.5433592,3,1
PCRE3,Poincaré,47.22278079,-1.58517693,3,1
IROI2,Iroise,47.24821551,-1.53650389,3,1
LNTT2,Linot,47.26539284,-1.52612921,3,1
PDOU1,Porte Douillard,47.28934753,-1.51816653,3,2
ECTE1,Enchanterie,47.22995718,-1.52437928,3,1
RROL2,Romain Rolland,47.20679342,-1.60987475,3,1
JML59,Jean Moulin,47.20730998,-1.59980304,3,1
BLVU7,Mendès France - Bellevue,47.20807743,-1.6122521,3,1
RROL1,Romain Rolland,47.2065047,-1.60938954,3,1
BRVI1,Boris Vian,47.15338322,-1.68260703,3,2
BEGE1,Beauger,47.23426481,-1.55307927,3,2
GLAU1,Grillaud,47.21970738,-1.58187532,3,1
MNSS1,Malnoue,47.20329728,-1.50510792,3,2
XREZ1,Croix de Rezé,47.17915017,-1.55918314,3,1
MLRA2,Malraux,47.25433568,-1.51765009,3,1
LHE99,La Herdrie,47.1978806,-1.45235552,3,2
CHTE1,Châtelets,47.19688142,-1.54053237,3,2
LCEE3,La Carrée,47.16891079,-1.54287082,3,1
DUKA1,Dukas,47.23525689,-1.60253715,3,1
AGV98,Angevinière,47.24597226,-1.611047,3,1
MVA98,Mortier Vannerie,47.18016282,-1.49942157,3,2
ROCA1,Rocade,47.16332955,-1.47436833,3,2
HOSE1,Housseau,47.28104613,-1.49836431,3,1
GRE71,Gare de l'État,47.20473498,-1.56029509,3,2
GNRA4,Greneraie,47.19927843,-1.53379875,3,1
NDRE1,Naudières,47.17312567,-1.53675174,3,1
GSSU5,Gare Sud,47.21555271,-1.54222781,3,1
BNCH1,Blanchetière,47.28986488,-1.55588163,3,2
DUNA2,Dunant,47.2438649,-1.5210971,3,2
TRQU2,Terres Quartières,47.13471089,-1.65955337,3,2
CNGO2,Congo,47.23962095,-1.61014171,3,1
MOT58,Motte Rouge,47.22878655,-1.55351916,3,1
LRNE1,Lourneau,47.20017153,-1.48842224,3,1
ECSU2,École Centrale - Audencia,47.24848797,-1.55147787,0,1
BLCH1,Blancho,47.2131701,-1.7349835,3,2
BDNN1,Bourdonnais,47.20556649,-1.57991993,3,1
CIGL1,Chai Gallais,47.13692602,-1.72162518,3,1
BRTA1,Bretagne,47.21743172,-1.55859061,0,1
CNAV2,Chantiers Navals,47.20884925,-1.5677981,0,1
BEOC2,Belloc,47.2030526,-1.61471617,3,2
NATL1,Aéroport,47.15786084,-1.60113897,3,1
BAGA1,Bagatelle,47.24348623,-1.62022099,3,1
PTON2,Portillon,47.14929216,-1.46906198,3,2
BOUE2,Bio Ouest Laënnec,47.23270183,-1.64200381,3,2
SAPI3,Saupin,47.18400789,-1.47565278,3,2
NIAG1,Niagara,47.30597506,-1.49337372,3,1
LIBE2,Libération,47.17729548,-1.67904538,3,2
BETO1,Belle Etoile,47.28068352,-1.45206222,3,2
CEGA2,Gare de La Chapelle,47.29577043,-1.54906515,3,2
FRKL2,Franklin,47.2259513,-1.61972641,3,1
LNOU1,La Noue,47.14042726,-1.60769751,3,1
PCTI1,Petit Chantilly,47.2544423,-1.60066741,3,1
ADEL1,Aimé Delrue,47.20931181,-1.55035994,0,1
FNSO1,Fenaison,47.26966612,-1.59248914,3,1
BYGA1,Gare de Bouaye,47.13838428,-1.68083896,3,2
CMNE1,Commune 1871,47.19914124,-1.5000683,3,1
TEIF2,Tour Eiffel,47.19957624,-1.75423909,3,1
PAJO2,Petit Anjou,47.2057536,-1.50464065,3,1
RCPE2,Route de la Chapelle,47.25452938,-1.57627616,3,1
BODO2,Bourdonnières,47.18748604,-1.52069763,3,1
GLOU1,Grange au Loup,47.26378596,-1.51546845,3,1
NLBR1,Noë Lambert,47.23010017,-1.52849772,3,1
JVAL1,Jules Vallès,47.17325202,-1.57115934,3,1
RLON1,Rennes - Longchamp,47.23863912,-1.57066471,3,1
OCOR1,Ouche Cormier,47.26465917,-1.62401658,3,1
RPAR4,Rond-Point de Paris,47.23365082,-1.53474303,3,1
RPCH2,Repos de Chasse,47.21669619,-1.59958947,3,1
INLA2,Internat Laënnec,47.23505293,-1.64103085,3,2
HVCQ2,Mairie de Carquefou,47.29881772,-1.49158829,3,2
EDRE2,Erdreau,47.29104322,-1.50155326,3,2
MAI85,8 Mai,47.18897552,-1.55105661,3,1
DIDE5,Espace Diderot,47.18449942,-1.56349086,3,1
CREZ1,Château de Rezé,47.18468756,-1.55926244,0,1
SGRA1,Sageran,47.21952906,-1.57118451,3,2
CVER2,Chapeau Verni,47.18917298,-1.51035533,3,1
JBAR1,Jean Bart,47.19923686,-1.67542268,3,2
CLZE1,Clouzeaux,47.17931163,-1.492604,3,1
PLPC2,Place des Pêcheurs,47.13647653,-1.66897801,3,2
PVTO7,Porte de Vertou,47.18051856,-1.50517742,3,1
TOTR2,Tortière,47.23513505,-1.54960129,3,2
BLVU3,Mendès France - Bellevue,47.20872357,-1.61166402,3,1
MSHE2,Mairie de St-Herblain,47.21100918,-1.64880159,3,1
LAMA2,Lamartine,47.21649329,-1.57886784,3,1
DSNE1,Desnerie,47.27791097,-1.54040836,3,2
BENA5,Beaulieu,47.20385171,-1.5372101,3,2
MGCH2,Monge - Chauvinière,47.25366563,-1.5743914,3,2
NLLA2,Noë Allais,47.22034908,-1.68862739,3,1
ABDU2,Abel Durand,47.22005849,-1.60325298,3,1
MVRD2,Monteverdi,47.26655885,-1.4463748,3,2
HALA4,Haluchère - Batignolles,47.24943134,-1.52291267,3,1
FOND1,Fonderies,47.20641547,-1.54391403,3,1
LAUR1,Lauriers,47.20465704,-1.60479403,0,1
THCE3,Centre de Thouaré,47.26712945,-1.44135713,3,1
JNAI4,Jaunaie,47.21888373,-1.72783741,3,1
BNTA1,BN,47.18396011,-1.49668431,3,1
KOUF4,Koufra,47.25020003,-1.53023909,3,1
HIND1,Haute-Indre,47.19540943,-1.64982033,3,2
BRDI2,Briandière,47.18972751,-1.6920222,3,2
SCHW4,Schweitzer,47.29472412,-1.4948824,3,1
PPUN9,Petit Port - Facultés,47.24307143,-1.54736236,4,1
PTIS1,Plessis Tison,47.23664954,-1.53346846,3,1
RBAL2,Roche Ballue,47.1794563,-1.65573184,3,1
GNRA5,Greneraie,47.19945857,-1.53296736,3,1
GAMB2,Gambetta,47.22357956,-1.53836639,3,1
LYCQ1,Lycée Estienne d'Orves,47.2794041,-1.49199735,3,1
PROU3,Pont Rousseau - Martyrs,47.19198125,-1.54763345,3,1
LPLE1,La Plée,47.1944799,-1.46342889,3,2
BIGN2,Bignons,47.19979898,-1.49350957,3,2
CLBO2,Clos Bonnet,47.19036028,-1.56502908,3,2
SCHW3,Schweitzer,47.29483069,-1.49517201,3,1
BSTI2,Bastière,47.14902552,-1.45932664,3,2
BSEJ7,Beauséjour,47.23824329,-1.58701443,3,1
HBDE1,Halbarderie,47.26831753,-1.43799446,3,1
NVER2,Noue Verrière,47.27788101,-1.57191546,3,2
CVRN1,Cheverny,47.24600502,-1.60479714,3,1
LOMB2,Lombarderie,47.23314962,-1.5554061,3,1
ZOLA4,Zola,47.21508327,-1.58627033,3,2
DCFF1,Du Chaffault,47.20747473,-1.58157163,0,1
CRVA1,Cravate,47.24334138,-1.58840955,3,1
BOGE2,Bourgeonnière,47.25319668,-1.55953492,0,1
CNTR2,Centaure,47.17000334,-1.62715098,3,1
PVTO2,Porte de Vertou,47.180699,-1.50497902,3,1
CSRI1,Classerie,47.16803208,-1.55875992,3,1
BZAR2,Buzardières,47.20678592,-1.65997695,3,1
CSVA2,Conservatoire,47.20706463,-1.53272573,3,1
GDEN2,Goldens,47.16203033,-1.49963083,3,2
PABO2,Paix,47.18242459,-1.59241798,3,1
BENA4,Beaulieu,47.2036902,-1.53400286,3,1
MSOR1,Mairie des Sorinières,47.14916076,-1.5322755,3,1
DSNE2,Desnerie,47.27793731,-1.54064319,3,2
GGNO2,Grignon,47.2164631,-1.46654077,3,1
LAIL2,Les Ailes,47.17121297,-1.57412762,3,1
CSGR1,Cassegrain,47.18762325,-1.48746483,3,2
PBLE3,Patis Brûlé,47.20002567,-1.50763359,3,2
LALL1,Lallié,47.22796147,-1.54486499,3,1
DIAN2,Diane,47.23973604,-1.57799608,3,2
ENCO1,Ennerie Corbon,47.1419403,-1.70520419,3,1
CLRO1,Clos Roux,47.19866249,-1.75092464,3,2
PRCE2,Procé,47.22261099,-1.5817218,3,1
NETR1,Neustrie,47.17731672,-1.59249754,0,1
LCLE1,La Coulée,47.26014155,-1.57475936,3,1
MDNE1,Madeleine,47.2757847,-1.483515,3,1
SJEA3,St-Jean,47.19181327,-1.52361368,3,2
ALDE2,Allende,47.17527311,-1.62312916,3,1
BDIN1,Bodinières,47.20972628,-1.64307644,3,1
PBYE1,Port Boyer,47.24117365,-1.53871952,3,1
PGTI2,Plinguetière,47.13362595,-1.61313247,3,2
BRGA1,Beauregard,47.21072345,-1.65656066,3,2
JNEA1,Jauneau,47.27376314,-1.45014915,3,2
BLVU1,Mendès France - Bellevue,47.20853787,-1.61161595,0,1
GTLA1,Garettes - Landreau,47.27320065,-1.63079927,3,1
AFRA3,Anatole France,47.22395398,-1.57217014,3,1
MONE2,Moinet,47.26558588,-1.49205412,3,2
FERI3,Ferrière,47.24434218,-1.59102376,3,1
PCRE1,Poincaré,47.22223259,-1.58463832,3,1
MAUC2,Centre de Mauves,47.2967272,-1.39289412,3,1
ESUE1,Eugène Sue,47.23332258,-1.5960368,3,2
PONT1,Pontereau,47.30646475,-1.3785415,3,2
MOIN1,Moinard,47.21353271,-1.72928032,3,2
FRON4,Frêne Rond,47.19021772,-1.49641502,3,1
HBAN2,Hangar à Bananes,47.20049084,-1.57284835,3,1
MOET2,Mouettes,47.21050196,-1.74226907,3,1
TNVA2,Terres Neuvas,47.18589527,-1.59137929,3,2
CVER3,Chapeau Verni,47.18905054,-1.50927505,3,2
BLGO1,Berligout,47.21577076,-1.67839838,3,1
PNLU2,Pinier,47.2527266,-1.48165714,3,2
OGVA3,Orvault Grand Val,47.26169717,-1.59229764,3,1
ALNE2,Aulne,47.27628919,-1.63841208,3,1
CAIO1,Caillou Blanc,47.29864722,-1.58556896,3,1
LOMB1,Lombarderie,47.23363952,-1.55551448,3,1
LLOR1,La Lorie,47.23527989,-1.6570017,3,2
MLHE1,Moulin Hérel,47.2194317,-1.63753725,3,1
GCH98,Gachet,47.29330914,-1.52391294,3,2
SERC1,Sercel,47.2668409,-1.48948857,3,1
PACQ2,Parc,47.27253938,-1.48401742,3,2
NDRE2,Naudières,47.17361389,-1.53597343,3,1
ICOU1,ICO,47.23852646,-1.6382514,3,1
RROL2,Romain Rolland,47.20679342,-1.60987475,0,1
BGRI1,Bougrière,47.25508877,-1.47174619,3,1
REDR1,Rédras,47.16476032,-1.50249132,3,2
MHDI1,Mahaudières,47.18892013,-1.56042533,3,2
GDCH3,Gare de Chantenay,47.19791548,-1.59361074,3,1
LMBR1,Lambert,47.17092448,-1.5397214,3,1
NILL1,Nil,47.24247584,-1.60791357,3,1
ABCH1,Abbé Chérel,47.21004362,-1.65163899,3,1
MTYY1,Monty,47.2742349,-1.43318564,3,2
LIPP2,Lippmann,47.23896584,-1.52035755,3,2
ICAM1,ICAM,47.2736037,-1.5018768,3,2
XREZ4,Croix de Rezé,47.18005941,-1.55903662,3,1
ERDI3,Éraudière,47.24267744,-1.53524312,3,2
PB1B2,Parc de la Bouvre,47.17599606,-1.61382895,3,1
RCPE1,Route de la Chapelle,47.2548833,-1.57611818,3,1
FFAU1,Félix Faure,47.22731855,-1.5697624,0,1
HAV58,Halvêque,47.256996,-1.52077998,3,1
XREZ3,Croix de Rezé,47.17927411,-1.55815518,3,1
CSAY2,Chassay,47.2458384,-1.48481952,3,1
JCOU1,Joncours,47.21995305,-1.58677946,3,1
PBLE2,Patis Brûlé,47.20063746,-1.50724806,3,2
CBSS1,Cambronne,47.20655438,-1.50636601,3,1
CRTI2,Crétinières,47.27652377,-1.55320535,3,1
CTAR1,Cotalard,47.28631385,-1.53778319,3,1
EINS1,Einstein,47.26410317,-1.57105087,3,1
BCOI1,Branchoire,47.21785267,-1.6030165,3,1
CBLE1,Chemin Bleu,47.17822438,-1.52497724,3,1
MHUI2,Moulin à l'Huile,47.17697847,-1.56259427,3,1
HODI2,Hôtel Dieu,47.21150894,-1.55293708,0,1
BTRA1,Bertrand,47.25712536,-1.57563141,3,1
LFOR1,La Forêt,47.14899448,-1.64068745,3,1
MRAI1,Maraîchers,47.1848456,-1.51067188,3,1
JBNA2,Jeanne Bernard,47.23590325,-1.59066715,3,1
MSLL2,Marseillaise,47.20746446,-1.59192511,3,2
JGUE1,Jaguère,47.17558074,-1.56788043,3,1
ORNG1,La Chapelle Aulnay,47.30851025,-1.54018924,3,2
JVRA1,Janvraie,47.20000078,-1.61230633,3,1
SPSA2,St-Paul - Salengro,47.18533965,-1.54627299,3,1
SECH2,Schoelcher,47.22061878,-1.62817662,0,1
BOSI2,Boissière,47.25492721,-1.56586392,0,1
LDAS2,Landas,47.16882368,-1.51148727,3,2
WATT3,Wattignies,47.20415006,-1.54640747,3,2
VEPR2,Vesprées,47.24598838,-1.50245624,3,1
MVAN1,Mortier Vannerie,47.18003031,-1.49931697,3,2
RSCO2,Robert Scott,47.18687453,-1.459976,3,2
HRLL2,Hérelle,47.20159025,-1.58674154,3,1
PXCE2,Port aux Cerises,47.31187551,-1.5413274,3,2
BGAR2,Bonne Garde,47.19677941,-1.53126859,3,1
BRBI1,Bois Robillard,47.2351422,-1.51977766,3,1
GAGN2,Gagnerie,47.23222643,-1.50735772,3,1
LMBR2,Lambert,47.17135963,-1.53896837,3,1
SMIC2,St-Michel,47.22412469,-1.64457606,3,1
POON2,Potiron,47.27045471,-1.51885088,3,1
RTPA2,Route de Paris,47.26674902,-1.48807687,3,2
TMOU2,Trois Moulins,47.17809121,-1.54421104,3,2
BODO1,Bourdonnières,47.18722663,-1.5211017,3,1
PRHE2,Petit Rocher,47.24056485,-1.47901276,3,1
PLES2,Plessis,47.30097239,-1.55241195,3,2
MRTE1,Marterie,47.17844575,-1.5314777,3,1
THCE1,Centre de Thouaré,47.26656282,-1.44136206,3,1
LDRE1,Landreau,47.23247003,-1.51600562,0,1
BIND3,Basse-Indre,47.19770693,-1.67305608,3,1
POON1,Potiron,47.27048981,-1.51866287,3,1
PCBI1,Picabia,47.25465387,-1.57674827,3,2
DEM99,Desmoulins,47.23265511,-1.52121679,3,2
ERDI1,Éraudière,47.24175583,-1.53476774,3,2
RPBL1,République,47.20559042,-1.55489111,3,2
JNIG2,Jean Ingres,47.22237373,-1.59680515,3,1
BSOL1,Beau Soleil,47.17765429,-1.64463825,3,2
UGAZ2,Usine à gaz,47.19502857,-1.61895753,3,1
BCNY9,Bas-Chantenay,47.19564384,-1.58864718,4,1
CHLI2,Cholière,47.25099949,-1.60671565,3,1
MDPO2,Moulin de Porterie,47.27577049,-1.51215323,3,1
FACU1,Facultés,47.24584936,-1.55501977,0,1
BLL98,Bellestre,47.1484134,-1.69436142,3,1
RNTI2,Reinetière,47.25694629,-1.49126605,3,1
RTSC3,Recteur Schmitt,47.25222795,-1.55269299,3,1
BGRI2,Bougrière,47.25500061,-1.47207061,3,1
CLTT1,Châlet,47.22997714,-1.54414257,3,1
DLCR2,Delacroix,47.22364517,-1.58941815,3,1
JCAR2,Jacques Cartier,47.22400081,-1.63652415,3,1
FBLA3,Fresche Blanc,47.25282588,-1.5568332,3,2
BDPA1,Bout des Pavés,47.25281077,-1.57620064,3,1
TPOD1,Tripode,47.20840895,-1.54064071,3,1
LRCH1,La Roche,47.21648637,-1.51926306,3,1
MIND2,Mairie d'Indre,47.20038238,-1.66903535,3,1
CSVA3,Conservatoire,47.20704483,-1.53302035,3,1
BCES2,Bois Cesbron,47.26096955,-1.62431608,3,1
SEVR2,Sèvres,47.18682374,-1.52833764,3,1
RBRN1,René Bernier,47.19392747,-1.49920173,3,1
BOLL1,Bois Tillac,47.20024236,-1.77146521,3,2
PNPI1,Pont Pilet,47.33946774,-1.5723325,3,2
LHIE1,La Haie,47.28994836,-1.54230114,3,2
JLVE5,Joliverie,47.18998418,-1.51936089,3,1
REYN1,Reynière,47.25616203,-1.57867237,3,2
BUGA2,Bugallière,47.25989992,-1.63789321,3,1
HODI5,Hôtel Dieu,47.21217624,-1.55245952,3,2
CTIE2,Châtelier,47.18484934,-1.59326049,3,2
LGRI2,La Grille,47.25100338,-1.48202083,3,1
NOHH1,North House,47.19570054,-1.57371149,3,2
CHME2,Charmes,47.1910924,-1.46111544,3,1
PDUC1,Prairie au Duc,47.20425767,-1.56508419,3,1
BEMZ1,Belges - Montbazon,47.23464974,-1.54095759,3,2
RDNT1,Rue de Nantes,47.15114034,-1.53431438,3,1
MPAU4,Marcel Paul,47.24674813,-1.61718737,3,1
BOND1,Bonde,47.22262419,-1.55189176,3,1
RSRA2,Roseraie,47.26060696,-1.52838433,3,1
CAUX2,Château d'Aux,47.18504936,-1.67425627,3,1
DOLT1,Dolto,47.21645137,-1.63617499,3,1
MELI2,Méliès,47.18158427,-1.55615938,3,1
JAME1,Jamet,47.20997709,-1.60253972,0,1
MGAL1,Marie Galante,47.26419564,-1.45095974,3,1
XSYY2,Croisy,47.25378864,-1.62729497,3,2
GLNE2,Galarne,47.20818656,-1.52970224,3,1
BIAN2,Aristide Briand,47.29635147,-1.49515533,3,1
PTYY1,Planty,47.17527972,-1.49489788,3,1
LADO1,Ladoumègue,47.29611088,-1.48652268,3,2
PREU1,Preux,47.22150556,-1.612737,3,1
BSYS1,Bois St-Lys,47.30037659,-1.48191096,3,1
GGAU2,Gergaudière,47.28984026,-1.58576298,3,2
DALB2,Dalby,47.22569407,-1.52920001,3,1
DSAI1,Desaix,47.22754912,-1.54213124,3,1
BNDA1,Brindais,47.13908765,-1.7182338,3,2
LCOG2,La Cogne,47.28685807,-1.55738993,3,1
FOND2,Fonderies,47.20637305,-1.54364927,3,1
MAUC1,Centre de Mauves,47.29738288,-1.39409025,3,1
LABE1,Lac de Beaulieu,47.21941063,-1.69310873,3,1
RVAN4,Rond-Point de Vannes,47.22982246,-1.57178054,3,1
CHAB1,Chabossière,47.21547801,-1.68242961,3,2
PMVE1,Prairie de Mauves,47.22002746,-1.51668533,3,1
NCTE1,Noé Cottée,47.19408208,-1.47862574,3,1
PLOR2,Ploreau,47.30303836,-1.55190698,3,1
NETR9,Neustrie,47.17691899,-1.59348945,3,1
GRIM1,Grimm,47.2166549,-1.64546642,3,1
COST2,Cousteau,47.23979839,-1.51317853,3,1
CLPT1,Clépettre,47.29704365,-1.5478961,3,1
SNIC1,St-Nicolas,47.21569549,-1.55930228,3,1
CBAC1,Bac de Couëron,47.20598337,-1.75170597,3,2
TOSC1,Toscane,47.28294959,-1.54845575,3,1
MGDR2,Mongendrière,47.29236784,-1.55457079,3,1
CIGL2,Chai Gallais,47.13700078,-1.72157408,3,1
GLEI1,Grolerie,47.17269593,-1.47236043,3,1
MAI84,8 Mai,47.18907132,-1.55166076,3,1
CMCI1,Clémencière,47.2694877,-1.43572725,3,1
SLDA4,Solidarité,47.21730891,-1.58743292,3,2
DOLT2,Dolto,47.21644746,-1.63639283,3,1
SPIN1,Saupin,47.21421066,-1.53741025,3,2
POMM1,Pommeraie,47.14569143,-1.69505174,3,1
TLSA2,Talensac,47.22149763,-1.55580899,3,2
MNEF2,Moulin Neuf,47.22979973,-1.5164876,3,2
JAME2,Jamet,47.21010985,-1.60316148,0,1
BNVI2,Bonneville,47.24384339,-1.53640808,3,2
CHNI1,Charbonnière,47.2636907,-1.64229005,3,1
CUGA2,Gare de Couëron,47.22167517,-1.72390317,3,1
PVT96,Porte de Vertou,47.18113556,-1.50571575,3,1
BTRA2,Bertrand,47.25703154,-1.5757952,3,1
GOBI2,Gobinière,47.24963568,-1.58683724,3,1
BVDI2,Bouvardière,47.23835837,-1.59841068,3,2
GAUT1,Gautellerie,47.17739585,-1.60201963,3,1
CROU2,Chemin Rouge,47.25188213,-1.51760284,3,2
CUPI1,Coupries,47.19179085,-1.46702459,3,2
OTAG4,50 Otages,47.21986211,-1.55516649,3,1
GNRA7,Greneraie,47.19912245,-1.53340161,3,1
BRAG2,Bois Raguenet,47.26682994,-1.60038644,3,1
CAPE2,Capellia,47.2796771,-1.55496349,3,1
PEDR1,Perdriaux,47.16135558,-1.48590751,3,2
BEVA2,Beauvaiserie,47.13622785,-1.65417792,3,2
CBGE1,Chapeau Berger,47.1710169,-1.46882696,3,1
CBEA2,Charbonneau,47.3006297,-1.490802,3,1
CQLU2,Coqueluchon,47.18410989,-1.47025437,3,2
PTYY2,Planty,47.17539207,-1.49528368,3,1
PRIM2,Primevères,47.22485151,-1.67292644,3,2
GATI2,Gâtine,47.2132167,-1.66011893,3,1
RTSC1,Recteur Schmitt,47.25218815,-1.55299169,0,1
XJAN2,Croix Jeannette,47.17156865,-1.62390925,3,1
HFVE1,Haute Forêt,47.16828801,-1.46555463,3,1
LFVR1,Lefeuvre,47.26668521,-1.49504763,3,2
LNOU2,La Noue,47.14070793,-1.60744492,3,1
ARBO1,Arbois,47.25867271,-1.58176016,3,2
HDIE1,Haudrière,47.15466588,-1.4676838,3,2
GAMB1,Gambetta,47.22358023,-1.53856078,3,1
PVLO2,Pavillon,47.14360573,-1.67929774,3,2
JJNA2,Jean Jaurès,47.21836198,-1.56005961,0,1
IUTH2,IUT,47.29791076,-1.50441246,3,1
DIAN1,Diane,47.2396401,-1.57811601,3,2
VIVI1,Viviers,47.17307675,-1.4848965,3,1
GBNI2,Guiblinière,47.29242582,-1.52037824,3,2
CTNS2,Carterons,47.21824433,-1.73918265,3,1
GEVR2,Gesvres,47.26365391,-1.54872959,3,1
RAZA1,Ranzay,47.25335602,-1.53055731,0,1
TENA6,Tertre,47.21458931,-1.60644446,3,1
CNCE1,Chenonceau,47.2726347,-1.43447667,3,2
TDGA1,Tredégar,47.25471708,-1.60493675,3,1
CPRE2,Chaupières,47.24232408,-1.49502659,3,1
BLUA2,Bélouga,47.16581426,-1.58339671,3,2
MQLI2,Mocquelière,47.23327546,-1.61860733,3,2
BROS1,Brossais,47.16259043,-1.58562496,3,2
MBSE2,Moulin Boisseau,47.2874804,-1.48429166,3,2
ALDE3,Allende,47.17487613,-1.62461491,3,1
BDIN4,Bodinières,47.21041219,-1.64170649,3,1
CHRE1,Chalâtres,47.23185115,-1.53783116,3,1
SNUC2,Stade SNUC,47.22796582,-1.58054726,3,1
SADU4,Santos Dumont,47.25936756,-1.56676621,3,2
CHGN4,Châtaigniers,47.22212314,-1.60295554,3,1
MNT98,Ménétrier,47.24068594,-1.52399409,3,1
JNAI3,Jaunaie,47.21898996,-1.72799223,3,1
PTIS2,Plessis Tison,47.23657285,-1.5336335,3,1
LILA2,Lilas,47.13757001,-1.4682558,3,2
APRE1,Ambroise Paré,47.2288974,-1.60863904,3,1
MSHE4,Mairie de St-Herblain,47.21159532,-1.64880824,3,1
TCHE2,Trois Chênes,47.25965596,-1.47457581,3,2
CBIN2,Corbinerie,47.16160499,-1.5421356,3,1
JNAI1,Jaunaie,47.21917274,-1.72717715,3,1
MITR1,Mitrie,47.22886102,-1.52586033,3,1
JFRA1,Jean Fraix,47.18604445,-1.5419551,3,1
MGLI2,Magnoliers,47.2266885,-1.60514947,3,2
BEET1,Bel Être,47.1794579,-1.56759648,3,1
AECL2,Aéroclub,47.15938736,-1.59803572,3,2
MRGE2,Morges,47.16497092,-1.47198795,3,1
CABR2,Cabrol,47.2042176,-1.5882743,3,1
LLIO2,Les Lions,47.24984587,-1.61549843,3,1
BELE1,Bêle,47.26475076,-1.51049581,3,1
POTT2,Pottier,47.17761741,-1.62727348,3,2
AFRA1,Anatole France,47.22445344,-1.57114631,3,1
LAXX2,La Croix,47.1652905,-1.48696488,3,1
BNLU1,Bénélux,47.25408884,-1.49909338,3,2
GPOR2,Grand Portail,47.20142758,-1.52361868,3,1
ROUS1,Roussière,47.29449718,-1.55296122,3,2
CVLE2,Chevalerie,47.25230159,-1.54529475,3,2
COHO1,Chohonnière,47.26314626,-1.48602114,3,2
HAUB1,Haubans,47.21464189,-1.53001407,3,1
TZEL1,Touzelles,47.2081671,-1.46628023,3,2
RDGO2,Radigois,47.19335271,-1.51758198,3,1
LITT1,Littré,47.21768764,-1.58247032,3,1
FRCH2,Fraîches,47.17487651,-1.49052881,3,1
JVAL2,Jules Vallès,47.17342955,-1.57081171,3,1
FMIT6,François Mitterrand,47.22209043,-1.63895244,3,1
CAUX3,Château d'Aux,47.1853481,-1.67454951,3,1
SHMD1,St-Hermeland,47.14424919,-1.69605748,3,1
CANC4,Canclaux,47.21535767,-1.5747794,3,1
RCAS1,René Cassin,47.26421014,-1.57645031,0,1
LGOF1,Le Goffic,47.22997873,-1.56317754,3,1
JAUR2,Jacqueline Auriol,47.27141034,-1.47139548,3,1
PLAE2,Planche Etienne,47.16588421,-1.62529688,3,1
IUTH1,IUT,47.29791024,-1.50461762,3,1
MICH2,Michelet - Sciences,47.23493278,-1.55663739,0,1
FRNE2,Frênes,47.25329548,-1.48759195,3,1
BOCE2,Centre de Bouguenais,47.17935986,-1.62291358,3,1
CNLA1,Canal,47.21601332,-1.47195205,3,1
ECTE2,Enchanterie,47.23007808,-1.52407729,3,1
NVER1,Noue Verrière,47.27598037,-1.57117828,3,2
LCLE2,La Coulée,47.25948865,-1.57502249,3,1
LCTE1,La Côte,47.28207546,-1.5604627,3,1
FAUV2,Fauvelière,47.28283937,-1.50477829,3,1
GIND2,Gare d'Indre,47.20520591,-1.66314736,3,1
CTEU1,Caboteurs,47.18642432,-1.58724712,3,2
JRO59,Jean Rostand,47.24615429,-1.59380088,3,2
BSEJ6,Beauséjour,47.23832155,-1.58714977,3,1
LAUR2,Lauriers,47.20492373,-1.60521282,0,1
MIEA2,Millenia,47.12392302,-1.63047185,3,1
PSPO1,Parc des Sports,47.26048815,-1.44903152,3,1
TRTS1,Tarentaise,47.27739769,-1.43406907,3,2
PIAO2,Piano'cktail,47.17480911,-1.60662294,3,1
MGIN7,Mangin,47.201797,-1.54489934,3,2
BCTT2,Blanchet,47.17133674,-1.54317866,3,1
BOG58,Bourgeonnière,47.25329347,-1.56125502,3,2
PETR2,Pétrels,47.25434124,-1.50706676,3,1
MRIE2,Maurienne,47.27533872,-1.44307679,3,1
PRUT1,Proutière,47.19829936,-1.78006928,3,1
SAVA3,Savarières,47.20824328,-1.48939044,3,2
CECE2,Centre de La Chapelle,47.29896725,-1.54865029,3,2
DIDE4,Espace Diderot,47.18377456,-1.5629532,3,1
BLDR2,Boulodrome,47.25834064,-1.51423074,3,1
CRNO1,Corbon,47.21234967,-1.46133423,3,2
PGRI1,Pagerie,47.17861616,-1.65203366,3,1
OQNE2,Ouche Quinet,47.19600218,-1.50413238,3,2
BCHE1,Basse Chênaie,47.24117824,-1.50918217,3,1
CSAY1,Chassay,47.24567197,-1.48473224,3,2
RVER2,Roches Vertes,47.18492403,-1.52466522,3,1
LAUR2,Lauriers,47.20492373,-1.60521282,3,1
LHPI2,L'Hôpitau,47.27222023,-1.5516628,3,1
SMHI1,St-Mihiel,47.22350128,-1.55339129,0,1
CHGN3,Châtaigniers,47.22208237,-1.60280446,3,1
BLNO2,Bois de La Noé,47.14175942,-1.6714364,3,2
MIEA1,Millenia,47.12351517,-1.63096293,3,1
LFOR2,La Forêt,47.14947537,-1.63938699,3,1
HOGR2,Hongrie,47.21598415,-1.52377274,3,1
EGLI6,Égalité,47.20922138,-1.58799633,3,1
DNAI2,Danais,47.21370744,-1.58977548,3,1
TMSS1,Trémissinière,47.23813849,-1.54439495,3,1
GBLO2,Grand Blottereau,47.22972076,-1.51127511,3,1
PSCE1,Plaisance,47.24032537,-1.5914667,0,1
MEDI1,Méditerranée,47.27115318,-1.48508273,3,2
MCOU1,Mairie de Couëron,47.2122751,-1.72724149,3,1
JGUE2,Jaguère,47.17550945,-1.56764539,3,1
MGIN1,Mangin,47.20192517,-1.54513198,0,1
MELI1,Méliès,47.18152619,-1.55633218,3,1
GRET2,Gare de l'État,47.2046935,-1.56005682,3,1
GRIM3,Grimm,47.21611145,-1.64552776,3,1
PPFA4,Petit Port,47.24360737,-1.55737478,3,1
LLGR1,Léo Lagrange,47.2973156,-1.55484912,3,1
CLNA1,Colonac,47.22507475,-1.60282256,3,1
PJOU2,Point du Jour,47.26495002,-1.44366652,3,1
FRBA1,Frébaudière,47.2722822,-1.62654668,3,1
NETR2,Neustrie,47.1772495,-1.59296287,0,1
GURO2,Gustave Roch,47.2040924,-1.55198964,3,2
FFAU3,Félix Faure,47.22713587,-1.57012984,3,1
PMVE2,Prairie de Mauves,47.22024595,-1.51645386,3,1
LAXX1,La Croix,47.16527449,-1.48674188,3,1
CCDI1,Cochardières,47.22992076,-1.63319007,3,1
OLYM2,Olympe de Gouges,47.30898935,-1.54466663,3,1
GOBI3,Gobinière,47.24935632,-1.58713288,3,1
CACE2,Centre de Carquefou,47.29710045,-1.49133814,3,1
VARI2,Vincent Auriol,47.22180531,-1.59234502,3,1
MNIE2,Moulinier,47.13555159,-1.6658161,3,2
MMSS1,Mermoz,47.19869587,-1.51546662,3,1
SPSA1,St-Paul - Salengro,47.1843562,-1.5461105,3,1
MAAR1,Maillardière,47.27401399,-1.63428061,3,1
MNVE2,Maison Neuve,47.27458938,-1.46730286,3,2
CVRN2,Cheverny,47.24544637,-1.60546226,3,1
GIAR1,Gilarderie,47.18606426,-1.68294425,3,1
PBLE1,Patis Brûlé,47.19919187,-1.50733055,3,2
MAGA1,Gare de Mauves,47.29318801,-1.38985545,3,1
RBNI1,Robinière,47.16365115,-1.53553165,3,2
MLLI1,Mellinet,47.21088441,-1.57659764,3,1
CBGE2,Chapeau Berger,47.17166378,-1.4688201,3,1
SADU3,Santos Dumont,47.25954687,-1.56668405,3,1
POYA2,Poyaux,47.16662633,-1.53110204,3,2
BCOI3,Branchoire,47.21859457,-1.60368322,3,1
MAZE1,Mazères,47.31369706,-1.35041651,3,2
BRIN1,Brains,47.17078527,-1.71899634,3,2
PCDI2,Picaudière,47.28011343,-1.48537946,3,1
QBNA2,Quai Brunais,47.19614364,-1.66872074,3,2
NLLA1,Noë Allais,47.22034571,-1.68795022,3,1
GDRE1,Guindré,47.23953617,-1.53740933,3,1
CLRO2,Clos Roux,47.19812679,-1.74954625,3,2
SAPI2,Saupin,47.18407294,-1.47578291,3,2
CUPI2,Coupries,47.19158639,-1.46729809,3,2
LYPE2,Lycée Appert,47.25108331,-1.61076828,3,1
PELO1,Pelousière,47.20770127,-1.64699156,3,1
JFRA2,Jean Fraix,47.18656713,-1.5424012,3,1
LMAR1,La Marche,47.18112404,-1.65969141,3,1
BRGA2,Beauregard,47.21008737,-1.65713709,3,1
GTVE1,Gaston Veil,47.21000275,-1.55577243,3,1
NOSH2,Noëlles,47.2403012,-1.60434235,3,1
JPER1,Jean Perrin,47.18102272,-1.56059287,3,1
WBDT2,Willy Brandt,47.17287544,-1.5630325,3,1
BGVI2,Bougainville,47.19880455,-1.58337764,3,2
UTLO2,Utrillo,47.18201565,-1.56348165,3,2
BOSI1,Boissière,47.25528318,-1.56591107,0,1
PJOU3,Point du Jour,47.26494384,-1.44443211,3,1
CTRE4,Chantrerie - Grandes Écoles,47.28219447,-1.5180674,3,1
CMAR1,Cirque - Marais,47.2180537,-1.55724257,3,1
BCGA2,Bd Charles Gautier,47.22197075,-1.6070692,3,1
CHER3,La Cochère,47.20041546,-1.77830108,3,2
PTQQ2,Portricq,47.26511636,-1.52125751,3,1
FLTR1,Flora Tristan,47.17630151,-1.54391885,3,1
JUME2,Jumelière,47.29459988,-1.48749475,3,2
BRBI2,Bois Robillard,47.23563803,-1.51989804,3,1
PRSS1,Pressoir,47.12363426,-1.63901916,3,2
SEVR1,Sèvres,47.1860737,-1.52723055,3,1
LBER1,Lindbergh,47.15506869,-1.59837208,3,2
HODI1,Hôtel Dieu,47.21211255,-1.5534925,0,1
RMAU1,Roche Maurice,47.1963408,-1.6182524,3,2
HILE2,Haute Île,47.19476901,-1.55637969,3,2
MDOU4,Mairie de Doulon,47.22662689,-1.51974284,3,2
GULO4,Guilloterie,47.17004759,-1.56052315,3,1
CRBE2,Corberie,47.15245718,-1.52396069,3,1
VEND1,Vendée,47.20829293,-1.46836148,3,1
REFR1,Réfractaires,47.30302925,-1.54688027,3,1
TEBS1,Tertre,47.19683391,-1.74462377,3,1
DCAN3,Duchesse Anne - Château,47.21628489,-1.54682951,3,1
MLAN1,Magellan,47.18820355,-1.46440884,3,2
BSAN1,Bobby Sands,47.22993794,-1.65278132,3,1
COHO2,Chohonnière,47.2633968,-1.48604303,3,2
CAGE1,Chalonges,47.27613635,-1.42939758,3,2
HVCQ1,Mairie de Carquefou,47.29891286,-1.49032153,3,1
BSEJ5,Beauséjour,47.23828103,-1.58744039,3,1
RCUU1,Rochu,47.21518272,-1.6664843,3,1
PBYE2,Port Boyer,47.24111452,-1.53846926,3,1
VDCE2,Val du Cens,47.26107161,-1.66511809,3,2
BDNN2,Bourdonnais,47.20641639,-1.57950634,3,1
DROI2,Droitière,47.30793625,-1.3733319,3,2
GLAU2,Grillaud,47.22028479,-1.58158182,3,1
MLDR1,Maladrie,47.18808116,-1.49420236,3,1
PVIL1,Petit Village,47.21701936,-1.6504259,3,2
PACQ1,Parc,47.27264258,-1.48389247,3,2
PUCH1,Pluchets,47.21860733,-1.65448524,3,2
TBAU1,Thébaudières,47.31076534,-1.35978316,3,1
JAPY1,Japy,47.25935501,-1.51179422,3,1
PABO1,Paix,47.18299982,-1.59229506,3,2
MPMN2,Melpomène,47.27697905,-1.50042007,3,2
LGTH2,Lagathu,47.18122277,-1.53723057,3,1
RLEA1,Rouleaux,47.20021946,-1.46618856,3,1
CBIN1,Corbinerie,47.16146599,-1.54222457,3,1
PNLU3,Pinier,47.25275806,-1.48144114,3,2
JMLI2,Jean Moulin,47.20679569,-1.60054105,0,1
MREZ1,Mairie de Rezé,47.19134722,-1.57024349,3,2
MICH3,Michelet,47.23451194,-1.5573909,3,1
ERAC1,Erdre Active,47.28324663,-1.54407127,3,1
OLVE2,Oliveraie,47.18859184,-1.53112486,3,2
BLLE1,Bellestre,47.14789342,-1.69400805,3,1
HIND2,Haute-Indre,47.19444512,-1.64983572,3,2
LSAL2,La Salle,47.21447818,-1.68836546,3,1
ECOS2,Écosse,47.21516892,-1.52614214,3,1
SRDI1,Sarradin,47.22054098,-1.57016116,3,2
FOCH1,Foch - Cathédrale,47.21930667,-1.55030089,3,2
RPCH1,Repos de Chasse,47.21661417,-1.59787681,3,1
MDOU1,Mairie de Doulon,47.22694934,-1.51855766,0,1
BUON3,Bougon,47.17434038,-1.61073474,3,2
BLEM2,Belem,47.26546707,-1.45296822,3,2
CMAR2,Cirque - Marais,47.21814731,-1.55708414,3,1
BRLA2,Brouillard,47.27315386,-1.51494214,3,1
BOFA2,Bouffay,47.21456726,-1.55260028,0,1
CADO1,Cadoire,47.25671175,-1.48804666,3,2
BODO4,Bourdonnières,47.18637438,-1.5222914,3,1
LPME1,La Plume,47.19491281,-1.50547068,3,2
JMON1,Jean Monnet,47.16620421,-1.46516502,3,2
BJOI1,Beaujoire,47.25884933,-1.5249301,0,1
SEIL4,Seil,47.19469439,-1.57028961,3,2
GCEN3,Grande Censive,47.25136104,-1.54966166,3,1
MOTE1,Motte Rouge,47.22793787,-1.55390037,0,1
EGLI4,Égalité,47.20841286,-1.58722065,3,1
DUKA2,Dukas,47.23486639,-1.60213018,3,2
BNO59,Bignon,47.24926265,-1.59773307,3,2
LUNI1,Lieu Unique,47.21564722,-1.54610774,3,2
DOME2,Doumer,47.22169937,-1.57817407,3,1
CCD99,Cochardières,47.22992265,-1.63318757,3,2
NBEL1,Nouveau Bêle,47.26871804,-1.50189773,3,2
SAVA2,Savarières,47.2086297,-1.49012119,3,1
NRDA2,Neruda,47.21770268,-1.61387077,0,1
LCNE2,Le Chêne,47.16526254,-1.48425305,3,1
SLEN1,Suzanne Lenglen,47.22902662,-1.58802021,3,1
GVSU1,Gare de Vertou Sud,47.1856238,-1.47665429,3,1
PCRE4,Poincaré,47.22275024,-1.58504248,3,1
STHR1,Alexandre Vincent - Ste-Thérèse,47.23292677,-1.57768281,0,1
DGLE2,De Gaulle,47.30079228,-1.55289268,3,2
DLLE2,Drillet,47.23473442,-1.66564014,3,1
JARI2,Jarriais,47.21290859,-1.71902739,3,1
BRAG1,Bois Raguenet,47.26659652,-1.60044334,3,1
COMF1,Commerce,47.21446533,-1.55551283,3,1
PSC58,Plaisance,47.24029028,-1.5917035,3,1
BRLN2,Berlin,47.21646814,-1.53597688,3,1
UTCH2,Utrecht,47.28311814,-1.5521951,3,2
PMTR4,Pont de la Métairie,47.26238081,-1.44714939,3,2
KERE2,Keren,47.2444297,-1.53372604,3,1
PTRI1,Patouillerie,47.24528777,-1.58120518,3,1
JALI4,Jalière,47.2636894,-1.59626387,3,2
EUVE1,Europe,47.17302989,-1.4762844,3,1
CBOU1,Couëron Bougon,47.22507921,-1.73401375,3,1
CLGE1,Chalonges,47.18968324,-1.47125451,3,1
FOUL1,Foulquier,47.30968311,-1.54607832,3,1
BRVI2,Boris Vian,47.15314483,-1.68357816,3,2
RBAL1,Roche Ballue,47.17956624,-1.65586025,3,1
TLDI2,Télindière,47.19612667,-1.73701846,3,1
SLEN2,Suzanne Lenglen,47.22902289,-1.58820901,3,1
BEET2,Bel Être,47.17925575,-1.56760816,3,1
GVSU2,Gare de Vertou Sud,47.18590246,-1.47661601,3,1
CHFL2,Champ Fleuri,47.14409184,-1.52567728,3,1
PGRI2,Pagerie,47.17867722,-1.65315714,3,1
GTLA2,Garettes - Landreau,47.27308793,-1.63056725,3,1
AROR1,Armor,47.23102229,-1.63125529,3,1
BVOI3,Beauvoir,47.17897519,-1.62631982,3,1
UTLO1,Utrillo,47.1823707,-1.56339654,3,2
TCHE1,Trois Chênes,47.25819923,-1.47415315,3,2
GGUI2,Gauguin,47.16696925,-1.55567146,3,1
AIGU2,Aiguillon,47.25445035,-1.49691555,3,2
CRCE2,Courocerie,47.25162021,-1.49931045,3,1
BGNN2,Bourgonnière,47.20652825,-1.6555616,3,1
CTRE3,Chantrerie - Grandes Écoles,47.28241046,-1.51815313,3,1
BJO58,Beaujoire,47.25862952,-1.52579264,3,1
PDAN2,Pas d'Ane,47.18206018,-1.46986952,3,2
GRCH1,Grand Chemin,47.19731328,-1.78404156,3,1
PXCE1,Port aux Cerises,47.3118084,-1.54131459,3,2
CNAV4,Chantiers Navals,47.20896996,-1.56779765,3,1
AROR3,Armor,47.2310405,-1.63182524,3,1
FRNE1,Frênes,47.25323809,-1.48766589,3,1
GRPO1,Gripots,47.19232252,-1.49175639,3,1
SORI2,Sorin,47.19532813,-1.56785562,3,2
BIOT1,Bigeottière,47.25604419,-1.6195246,3,2
BDPA3,Bout des Pavés,47.25353608,-1.57590053,3,1
SAGL1,St-Aignan de Grand Lieu,47.12310511,-1.63488497,3,1
GRMA1,Grimau,47.22776755,-1.65446267,3,2
LANA1,Launay,47.26543803,-1.63214696,3,1
RVDI2,Rivaudière,47.22710123,-1.65034441,3,1
CVLE1,Chevalerie,47.2522148,-1.54517072,3,1
ABOL1,Adrienne Bolland,47.26794667,-1.47660122,3,1
MGLI1,Magnoliers,47.2262468,-1.60568678,3,2
BGAR1,Bonne Garde,47.19698852,-1.53126388,3,1
PBYE9,Port Boyer,47.24200692,-1.54602336,4,1
HALA3,Haluchère - Batignolles,47.24927091,-1.52264713,3,1
GADO1,Gandonnière,47.30703832,-1.54057364,3,2
ADBO1,Audubon,47.21406679,-1.72322787,3,1
FOTA2,Fontaine,47.20554318,-1.48911942,3,1
CANC1,Canclaux,47.21387447,-1.57474631,3,1
MBLA2,Mont Blanc,47.17576734,-1.55523716,3,2
GCAR1,Grand Carcouët,47.23148169,-1.59270544,3,1
CBSS2,Cambronne,47.20660534,-1.50645822,3,1
CRQU2,Place du Cirque,47.21679358,-1.55703188,0,1
BSE11,Beauséjour,47.23818068,-1.58575746,3,1
SLCE2,Ste-Luce,47.25034412,-1.48506617,3,1
SBLL2,Sébilleau,47.20485638,-1.53170173,3,1
SEIL3,Seil,47.19460295,-1.57011776,3,2
DIDE2,Espace Diderot,47.18443305,-1.56281754,0,1
CVTI2,Convention,47.21153282,-1.58645414,3,1
BOGE3,Bourgeonnière,47.25303089,-1.560843,3,1
CBEA1,Charbonneau,47.30063419,-1.48851987,3,1
PNTI1,Plantiveau,47.24652809,-1.51147414,3,1
LAGE3,Largeau,47.19550259,-1.51081821,3,1
RVAN3,Rond-Point de Vannes,47.22996631,-1.57181485,3,1
BNCH2,Blanchetière,47.28958384,-1.55614973,3,2
BNET2,Bignonnet,47.17553878,-1.4652057,3,2
FACU4,Facultés,47.24684423,-1.55529719,3,1
XJAN3,Croix Jeannette,47.17095782,-1.62428013,3,2
BRET1,Bretonnière,47.16650278,-1.46285933,3,2
TMOU1,Trois Moulins,47.17853141,-1.54445826,3,2
DRLA2,Drouillard,47.17926542,-1.67783111,3,2
FER59,Ferrière,47.24326141,-1.59147209,3,2
PEON1,Perron,47.22492577,-1.60180543,3,1
DMUR2,Dumont d'Urville,47.2257819,-1.63635631,3,1
JROS1,Jean Rostand,47.2462063,-1.59404543,0,1
EBCA1,Embarcadère,47.19408468,-1.64653306,3,1
IDNA2,Île de Nantes,47.2059563,-1.53879775,3,1
TOUG2,Tougas,47.19412144,-1.63934197,3,2
LBER2,Lindbergh,47.15567365,-1.59795965,3,2
HIPP1,Hippodrome,47.24703628,-1.5673606,3,1
PPOU1,Pré Poulain,47.27253685,-1.44464775,3,2
SVN71,Savonnières,47.19724344,-1.66013654,3,2
MGNO2,Mignonnerie,47.24320342,-1.48231155,3,1
BANS3,Bois des Anses,47.24664486,-1.49490373,3,1
ECSU1,École Centrale - Audencia,47.24878732,-1.55104066,0,1
GDPI2,Grande Pièce,47.1990716,-1.51039424,3,1
MGIN3,Mangin,47.20162511,-1.54358517,3,2
BUGA1,Bugallière,47.25996309,-1.63765446,3,1
SORI1,Sorin,47.19517859,-1.56790946,3,2
QTNE3,Quintaine,47.21678117,-1.46257673,3,1
GBTA2,Grande-Bretagne,47.26229573,-1.50214038,3,2
GMAR5,Gare Maritime,47.20642138,-1.57355126,3,1
VDLO1,Vieux Doulon,47.23562036,-1.50413186,3,1
RAZA5,Ranzay,47.25266127,-1.52892899,3,1
BANS4,Bois des Anses,47.24666348,-1.49510213,3,1
TRCA1,Tréca,47.25024181,-1.50113739,3,2
CUVI2,Cuvier,47.21039847,-1.57321538,3,2
GDPI1,Grande Pièce,47.19910348,-1.50965521,3,2
MOET1,Mouettes,47.21031034,-1.74289823,3,1
HBLI1,Hôpital Bellier,47.22126137,-1.52427386,0,1
PAEB2,Pablée,47.21576383,-1.74014384,3,2
PTUR3,Pâtures,47.30394147,-1.55656325,3,2
RETA1,Retas,47.1548589,-1.53708125,3,2
MTRA2,Mortrais,47.12834561,-1.61636739,3,1
CSMP3,Casimir Perier,47.23197587,-1.5682487,3,2
BTIE1,Bottière,47.24021318,-1.51836596,3,1
BDRI2,Bourderies,47.20658312,-1.59566158,3,1
JOTE2,Jouetterie,47.13182494,-1.66287021,3,2
FLTR2,Flora Tristan,47.17581933,-1.54371483,3,1
RCER2,Rocher,47.21309458,-1.63966932,3,1
COAY2,Corlay,47.20802991,-1.64425882,3,1
INRE2,Indre,47.2011321,-1.66830114,3,1
RBHI1,René Bouhier,47.20992202,-1.57135655,3,2
PERR2,Perray,47.24754625,-1.51297189,3,1
RGNI1,Reigniers,47.13723399,-1.46618745,3,2
GROR1,Garenne,47.26508485,-1.6276974,3,1
PCNN2,Planchonnais,47.25357419,-1.47495576,3,1
MSSI1,Mississipi,47.23717186,-1.60917145,3,2
FOCH3,Foch - Cathédrale,47.21925363,-1.55045832,3,2
BDIN2,Bodinières,47.20978039,-1.64281346,3,1
ELIS1,Eglise,47.16849521,-1.72010412,3,1
BGUT2,Louis Breguet,47.27205203,-1.46613912,3,1
EQPE2,Équipement,47.22386574,-1.57577963,3,1
AIBU1,Airbus,47.15868256,-1.59121766,3,2
OMRL3,Orvault Morlière,47.24694283,-1.60315735,3,1
QANT1,Quai des Antilles,47.20377435,-1.56977894,3,1
RAVA1,Ravardière,47.18375232,-1.66438889,3,2
MICH5,Michelet,47.23542377,-1.556447,3,2
LTOU1,Le Tour,47.1516233,-1.68948372,3,1
HARO1,Harouys,47.21690025,-1.56700426,3,2
ENCO2,Ennerie Corbon,47.1418962,-1.70497247,3,1
TILL1,Tillay,47.2287659,-1.60648069,3,1
MAI83,8 Mai,47.18878689,-1.55146834,3,1
AMCA1,Armoricaine,47.25857293,-1.64870677,3,1
ALCH2,Champ de l'Alouette,47.28328854,-1.57975212,3,1
RCER1,Rocher,47.21318792,-1.63949648,3,1
DAYA1,Dayat,47.20080952,-1.67423351,3,1
DRAD1,Désirade,47.27782222,-1.48413044,3,1
PRGE2,Portail Rouge,47.24396251,-1.505063,3,1
CAUX1,Château d'Aux,47.18525897,-1.67387561,3,1
GMAR3,Gare Maritime,47.20687736,-1.57274796,3,1
BEHI1,Behinière,47.1977697,-1.79257748,3,2
GCSO2,Glacisol,47.25158666,-1.50440449,3,1
RMNE4,Romanet,47.21216601,-1.60885138,3,1
MOVA2,Mairie d'Orvault,47.27115286,-1.62371045,3,1
LYBR2,Lycée Brottier,47.16062337,-1.67778337,3,2
FRBA2,Frébaudière,47.27243308,-1.62766022,3,1
PCVO1,Pontecorvo,47.24671424,-1.53191275,3,1
GSSU4,Gare Sud,47.21597739,-1.54208015,3,1
CABR1,Cabrol,47.2032582,-1.58859645,3,1
FRGA1,Frégate,47.23525876,-1.47570796,3,2
CHTE2,Châtelets,47.19716701,-1.54058346,3,2
COET1,Les Couëts,47.18082453,-1.58622108,0,1
GDCH4,Gare de Chantenay,47.19777407,-1.59339949,3,1
CP3R1,Chapelles,47.16356526,-1.53851259,3,2
DMUR1,Dumont d'Urville,47.2258662,-1.63639298,3,1
GPOR1,Grand Portail,47.20227933,-1.5229546,3,1
BNGL2,Bénoni Goullin,47.20167803,-1.55376743,3,1
PEDR2,Perdriaux,47.16130365,-1.48570837,3,1
CUGA1,Gare de Couëron,47.22187115,-1.72429751,3,1
MLAN2,Magellan,47.18812505,-1.46422227,3,2
GNRA8,Greneraie,47.19986692,-1.53392192,3,2
FNLL2,Fresnel,47.24301901,-1.52339017,3,2
SFEL2,St-Félix,47.23121984,-1.55654298,0,1
GMDR1,Grimaudière,47.29395689,-1.54517362,3,2
BLZZ1,Berlioz,47.23950397,-1.57158884,3,1
EDNA2,Édit de Nantes,47.21449073,-1.56847285,3,1
RBRN2,René Bernier,47.19383095,-1.4992873,3,1
SDON2,St-Donatien,47.22891279,-1.54089736,3,1
MVRD1,Monteverdi,47.26657686,-1.44626494,3,2
MAI86,8 Mai,47.18919907,-1.55110456,3,1
VRIE1,Vrière,47.28297742,-1.5562349,3,1
CUIE2,Chausserie,47.14912899,-1.70406051,3,1
CBGE3,Chapeau Berger,47.171858,-1.46705753,3,1
CMSY2,Carrière Misery,47.20009943,-1.57904276,3,2
MIND1,Mairie d'Indre,47.20072201,-1.66828235,3,1
HERM4,Hermeland,47.22998839,-1.61680792,3,1
RROL1,Romain Rolland,47.2065047,-1.60938954,0,1
CTYY1,Coty,47.24901468,-1.48800397,3,1
GSIN2,Grassinière,47.16576428,-1.50800552,3,2
ADEL2,Aimé Delrue,47.2089869,-1.55013941,0,1
BORL1,Bourrelière,47.15796459,-1.49893426,3,2
PPFA5,Petit Port,47.2437052,-1.55719806,3,1
MGCH1,Monge - Chauvinière,47.25360934,-1.57437802,3,2
FTAB3,Félix Tableau,47.18797818,-1.54738129,3,1
BEVA1,Beauvaiserie,47.13622454,-1.65440339,3,1
PLAC1,Placis,47.19953273,-1.51987707,3,1
HIPP2,Hippodrome,47.24761917,-1.56778145,3,1
FLEU1,Fleuriaye,47.29847069,-1.49935577,3,1
BEOC1,Belloc,47.20370786,-1.61459803,3,2
CTOR1,Clos Toreau,47.1943339,-1.52910194,3,1
BDPA6,Bout des Pavés,47.25336226,-1.57611269,3,1
GPRO2,Gare de Pont Rousseau,47.19307786,-1.54930125,0,1
MOVA4,Mairie d'Orvault,47.27070025,-1.6231992,3,1
AIGU1,Aiguillon,47.25448411,-1.49660446,3,2
DCAN2,Duchesse Anne - Château,47.21620349,-1.54756121,0,1
PALL1,Pont Allard,47.19652033,-1.66630548,3,1
BBON1,Boisbonne,47.28686061,-1.50834861,3,2
BDOU7,Bd de Doulon,47.22407694,-1.51988423,3,1
MVA99,Mortier Vannerie,47.18002358,-1.49932969,3,2
PIBL1,Pierre Blanche,47.17216675,-1.62733755,3,1
SVN72,Savonnières,47.19710615,-1.66014743,3,2
EVRD2,Evardière,47.29819923,-1.56397178,3,2
CHLI1,Cholière,47.25089792,-1.60668303,3,1
OGVA4,Orvault Grand Val,47.26205374,-1.59282926,3,1
PIRB2,Pirmil,47.19610976,-1.54306771,0,1
XBON6,Croix Bonneau,47.20973436,-1.59725327,3,2
HVNA1,Hôtel de Ville,47.2178267,-1.55444338,3,2
CPRE1,Chaupières,47.24314729,-1.49505252,3,1
GGAU1,Gergaudière,47.28959688,-1.58587483,3,2
ESOR1,Écoles,47.14542002,-1.52756444,3,1
LCEE2,La Carrée,47.16833911,-1.54321109,3,1
LAIL1,Les Ailes,47.17024876,-1.57562628,3,2
REYN2,Reynière,47.25575496,-1.57928151,3,2
NATL2,Aéroport,47.15794554,-1.60132215,3,1
VGAC3,Vincent Gâche,47.20608258,-1.54740544,3,1
CCHA2,Couchant,47.27009278,-1.51388529,3,1
TAID3,Toutes Aides,47.22621214,-1.52188252,3,1
CP4L1,Chapelle Laënnec,47.23535037,-1.63778655,3,1
ICAM2,ICAM,47.27374086,-1.50189592,3,2
BALI2,Balinière,47.1860509,-1.55402157,0,1
CQLU1,Coqueluchon,47.18380011,-1.47038954,3,2
LLG99,Léo Lagrange,47.2969125,-1.5559861,3,2
GRCH2,Grand Chemin,47.19725449,-1.7837965,3,1
CPER2,Copernic - Musées,47.21487992,-1.56477358,3,1
RZEE2,Razée,47.21494103,-1.46596863,3,1
RDIE1,Rouaudière,47.29430185,-1.58441987,3,2
AROR2,Armor,47.23118208,-1.63134913,3,1
HLAN1,Haute Lande,47.15477271,-1.52345288,3,1
BVOI1,Beauvoir,47.1785034,-1.63120572,3,2
CLUE2,Clouet,47.16705758,-1.51035271,3,2
BAUG1,Baugerie,47.20344362,-1.52086462,3,1
DMAI1,Domaine,47.17834379,-1.46944547,3,2
DCF59,Du Chaffault,47.20756625,-1.58171447,3,1
BAGA2,Bagatelle,47.24353474,-1.61993625,3,1
FOCH5,Foch - Cathédrale,47.21970952,-1.55053375,3,1
NRDA6,Neruda,47.21778888,-1.61096085,3,1
MIAI2,Minais,47.25709013,-1.46641753,3,1
VILE1,Violettes,47.19811432,-1.50885338,3,2
OTAG1,50 Otages,47.22017701,-1.55546966,0,1
AGVI2,Angevinière,47.24503879,-1.6115045,3,1
LHAC2,La Hache,47.26214345,-1.49900192,3,1
RPBL2,République,47.20565358,-1.55456794,3,1
BHLR1,Basse Hillière,47.28667516,-1.42687789,3,2
FACU3,Facultés,47.24673699,-1.55556582,3,1
BOTI2,Boutière,47.15725341,-1.46809205,3,2
XBO98,Croix Bonneau,47.20975847,-1.59667875,3,1
MORH1,Morrhonnière - Petit Port,47.24167668,-1.55640496,0,1
PEGE1,Pégers,47.13756574,-1.47154333,3,2
LBAU2,Les Bauches,47.26329571,-1.67724329,3,1
PCPE1,Porte de La Chapelle,47.25975601,-1.55799282,3,1
RIND1,Rue d'Indre,47.204217,-1.66410436,3,1
MOCT1,Moulin Collet,47.20036437,-1.76629754,3,1
CRRO1,Claire Roman,47.15470775,-1.59132362,3,2
LCAR5,Le Cardo,47.26181538,-1.58443023,3,1
PSUD1,Pôle sud,47.18885603,-1.46985073,3,1
CPER1,Copernic - Musées,47.21487371,-1.56447835,3,1
MTLI1,Martellière,47.19905562,-1.52492496,3,2
FADI3,Fardière,47.19794198,-1.60667288,3,1
FBLA2,Fresche Blanc,47.25315149,-1.55820617,3,2
EGLI1,Égalité,47.20921294,-1.58829707,0,1
DANU2,Danube,47.30435233,-1.50107043,3,1
LNAI1,Le Nain,47.2265872,-1.60097182,3,1
VTNN1,Vertonne,47.18698281,-1.49432457,3,2
VIER1,Viv'Erdre,47.28552356,-1.55038344,3,2
LEGU2,Leygues,47.20318133,-1.54209099,3,1
VAIL2,Vaillant,47.19967481,-1.67114714,3,1
CTRE1,Chantrerie - Grandes Écoles,47.28181592,-1.51699719,3,1
CBLE2,Chemin Bleu,47.17833645,-1.52512667,3,1
PRIM1,Primevères,47.22496224,-1.67305771,3,2
ESAV1,ESAT Vertonne,47.18426187,-1.4825852,3,1
FLRI2,Floride,47.2134358,-1.60377652,3,1
CSTE1,Casterneau,47.22715488,-1.53274448,3,1
PLGU1,Pouliguen,47.23943362,-1.54311094,3,1
SALE3,Salentine,47.24866151,-1.61042149,3,1
GLDE1,Grande Lande,47.19253375,-1.49772641,3,2
PROU2,Pont Rousseau - Martyrs,47.19178095,-1.54865876,0,1
DERV2,Dervallières,47.22879629,-1.59831675,3,1
BRCH2,Bréchetière,47.28469698,-1.50367963,3,2
VFOU1,Vieux Four,47.19071991,-1.70136642,3,1
XBON4,Croix Bonneau,47.21048052,-1.59639742,3,2
PNTI2,Plantiveau,47.24616287,-1.51140686,3,1
BBRE1,Barbinière,47.15951428,-1.48173952,3,1
RNAN1,Renan,47.21625678,-1.61301182,3,1
LJOS1,Léon Jost,47.23633886,-1.56326841,3,1
TEN58,Tertre,47.21502196,-1.60869847,3,1
VIAR2,Viarme-Talensac,47.22120689,-1.56262533,0,1
BNO58,Bignon,47.24926265,-1.59773307,3,2
CHIN1,La Chesnaie,47.28175065,-1.53742452,3,1
HVCQ3,Mairie de Carquefou,47.29889404,-1.4904817,3,1
TBER2,Tristan Bernard,47.2057874,-1.46481466,3,2
GNRA3,Greneraie,47.19977967,-1.53445477,3,1
CPGT2,Capitaine Grant,47.26176872,-1.66947834,3,1
BTIE2,Bottière,47.24024468,-1.51815135,3,1
CDCO2,Cité des Congrès,47.21349749,-1.54495376,3,1
TDGA3,Tredégar,47.25398791,-1.60463561,3,1
CRRO2,Claire Roman,47.15470375,-1.59149366,3,2
BDLA1,Bout des Landes,47.26742549,-1.58228805,3,1
PBU98,Pé de Buzay,47.20251169,-1.81645639,3,2
FGRI2,Fief Guérin,47.14381973,-1.66047312,3,2
VSCO4,Vincent Scotto,47.25209006,-1.56629176,3,2
CMRA2,Cormerais,47.19468879,-1.62695608,3,1
HOD58,Hôtel Dieu,47.21236337,-1.55443996,3,1
MCHA1,Mairie de Chantenay,47.20632251,-1.58785112,3,1
POST2,Poste,47.29520344,-1.5541591,3,1
LPEL1,Le Pellerin,47.20127944,-1.75906133,3,1
CDCO1,Cité des Congrès,47.21371062,-1.54501681,3,1
BVOI2,Beauvoir,47.17846824,-1.63068395,3,2
AGDR2,Angebardière,47.16953517,-1.50541958,3,1
POST1,Poste,47.29525238,-1.55409647,3,1
PJOU4,Point du Jour,47.26472325,-1.44412809,3,1
PDAN1,Pas d'Ane,47.1813013,-1.47043113,3,2
HERM1,Hermeland,47.23053879,-1.61727835,3,1
BESS1,Bessonneau,47.21483112,-1.71376881,3,1
CTNS1,Carterons,47.21821277,-1.73941293,3,1
SAIG1,St-Aignan,47.2080072,-1.57838696,3,1
SMAR1,St-Martin,47.21343355,-1.69328116,3,2
QBNA1,Quai Brunais,47.19647539,-1.66956755,3,2
RNDR2,Renardières,47.14910684,-1.60179726,3,1
DCAN4,Duchesse Anne - Château,47.21603612,-1.54696875,3,1
GONI2,Gournière,47.26826457,-1.54944451,3,1
CNLA2,Canal,47.21612339,-1.47178276,3,1
HFLE1,Hameau Fleuri,47.25106852,-1.58996363,3,1
DEMO1,Desmoulins,47.23227708,-1.52225923,3,1
DANU1,Danube,47.30449077,-1.50178212,3,1
VCSO1,Vaucanson,47.21288937,-1.58152667,3,1
VFOU2,Vieux Four,47.19088259,-1.70088845,3,1
JHDI1,Jahardières,47.12538906,-1.64281818,3,2
BEMZ3,Belges - Montbazon,47.23591154,-1.54085072,3,1
GDNN1,Gendronnerie,47.12729774,-1.63914445,3,2
LTOU2,Le Tour,47.15190042,-1.68892621,3,1
CALI2,Californie,47.191197,-1.58439284,3,2
PEON2,Perron,47.2244231,-1.6008059,3,1
BPTY2,Boulay Paty,47.22906261,-1.57469209,3,2
CRVA2,Cravate,47.24324309,-1.58825421,3,1
PB1B3,Parc de la Bouvre,47.17607798,-1.614119,3,1
BAST1,Bastille,47.1790127,-1.59695756,3,2
JARI1,Jarriais,47.21294028,-1.7183318,3,1
DUNA1,Dunant,47.24390739,-1.52154983,3,2
SFRA2,San Francisco,47.21797189,-1.51572431,3,1
ODLA1,Ouche des Landes,47.19501958,-1.48284016,3,1
SERC2,Sercel,47.2676723,-1.4885068,3,1
BGSH2,Bergerie,47.23780226,-1.62849576,3,1
LGAR2,La Garde,47.25574916,-1.50908609,3,1
SDAV1,Square Daviais,47.21157725,-1.5575815,3,1
BIOT2,Bigeottière,47.25587549,-1.61927002,3,2
GSSU3,Gare Sud,47.21593202,-1.54176886,3,1
CEDR2,Cèdre,47.29940943,-1.55976656,3,2
LMIC1,Louise Michel,47.21948695,-1.61318817,3,2
VSCO2,Vincent Scotto,47.25154413,-1.56746622,3,2
MULI2,Mouline,47.32354762,-1.55313841,3,2
PCRE2,Poincaré,47.22236838,-1.5845121,3,1
JVRA2,Janvraie,47.1994813,-1.6113535,3,1
LLMO2,Le Clémois,47.13735664,-1.72233897,3,1
THEB1,Thébaudières,47.24449744,-1.60618853,3,1
VGAC5,Vincent Gâche,47.20645326,-1.54797819,3,2
CSMP1,Casimir Perier,47.23146954,-1.56889139,3,2
VERL1,Verlaine,47.23387522,-1.59485954,3,1
LECH3,Lechat,47.20349438,-1.5812075,3,1
FDLE1,Fac de Lettres,47.24568663,-1.55178073,3,1
PPLI2,Peupliers,47.1996101,-1.49566849,3,1
BVER2,Bouvernière,47.23805748,-1.61145327,3,1
CHBE2,Chambelles,47.23206155,-1.53137787,3,1
BNLU2,Bénélux,47.25400217,-1.49918108,3,2
TZEL3,Touzelles,47.20806471,-1.46706328,3,2
LCBU2,Le Corbusier,47.19021498,-1.56857268,3,2
GDFI2,Grand Fief,47.12559806,-1.62554131,3,2
IDNA1,Île de Nantes,47.20631942,-1.53892713,3,1
CXFS2,Croix des Fosses,47.21333948,-1.4663584,3,1
RVAN1,Rond-Point de Vannes,47.23010187,-1.57294338,0,1
ESUE2,Eugène Sue,47.23321199,-1.59595197,3,2
INLA1,Internat Laënnec,47.23499666,-1.64059952,3,2
PRRI1,Perrières,47.30986331,-1.55150875,3,1
SECH1,Schoelcher,47.22044611,-1.62775001,0,1
SAOR1,Sables d'Or,47.26504668,-1.45583979,3,1
GRTE1,Garotterie,47.22500221,-1.60676119,3,1
DLME3,Delorme,47.2156867,-1.56467378,3,2
DGLE1,De Gaulle,47.30101333,-1.55304118,3,2
MZUR2,Mazure,47.25798087,-1.4807294,3,2
BDIN3,Bodinières,47.20990294,-1.64192506,3,1
PUCH2,Pluchets,47.21872966,-1.65438596,3,2
JRO58,Jean Rostand,47.24606445,-1.59379428,3,2
SPRU2,Sully Prudhomme,47.23608056,-1.59656228,3,1
TOUG1,Tougas,47.19417211,-1.63964834,3,2
GTAE1,Grootaers,47.23966759,-1.58464851,3,1
CLAM1,Clos Ami,47.2121538,-1.65549491,3,1
PLNA2,Port launay,47.20966706,-1.74623323,3,1
CEER1,Chapellerie,47.28290704,-1.42315171,3,2
NETR8,Neustrie,47.1771017,-1.59299165,3,1
ECHO2,Échoppes,47.1439172,-1.68539014,3,1
SAD58,Santos Dumont,47.25935043,-1.56857611,3,2
ERAC2,Erdre Active,47.283154,-1.54406719,3,1
BSEJ3,Beauséjour,47.2379508,-1.58682237,3,1
GMOL1,Guy Mollet,47.24901791,-1.55373722,3,1
MLON1,Mulonnière,47.26599779,-1.54994788,3,1
PSME2,Place St-Méen,47.31905411,-1.34723337,3,2
FTAB4,Félix Tableau,47.18820077,-1.54678969,3,1
HBA99,Hangar à Bananes,47.20049084,-1.57284835,3,1
RPSI1,Ripossière,47.19151299,-1.53457436,3,2
JLIE1,Joliverie,47.18986654,-1.51945811,3,1
CVTI1,Convention,47.2114127,-1.58659602,3,1
BYGA2,Gare de Bouaye,47.13846442,-1.68083969,3,2
PVLO1,Pavillon,47.14369913,-1.67946053,3,2
FATA1,Fantaisie,47.25287088,-1.56940578,3,2
LEVO2,Levoyer,47.19390133,-1.58186498,3,1
CARQ2,Carquefou,47.30367916,-1.48558284,3,1
OCEA2,Couëron Océan,47.21376182,-1.73804399,3,2
ONCH2,Onchères,47.20270804,-1.4669746,3,2
JPER2,Jean Perrin,47.18126214,-1.5607041,3,1
AROR4,Armor,47.23102998,-1.63207834,3,1
CLGE3,Chalonges,47.18920845,-1.472349,3,1
PCPE4,Porte de La Chapelle,47.25897543,-1.55739751,3,1
LION2,Lionnière,47.21866064,-1.69598326,3,1
LBUS1,Les Buissons,47.27824175,-1.44364074,3,2
CFOI1,Champ de Foire,47.12423159,-1.61892105,3,1
GIBR1,Gibraye,47.20513059,-1.51507476,3,1
MRIE1,Maurienne,47.27561221,-1.44248081,3,1
ECSU3,École Centrale - Audencia,47.24853943,-1.55155436,3,2
FLEU2,Fleuriaye,47.29836312,-1.4996115,3,2
BRIN2,Brains,47.17074859,-1.71880996,3,2
ANTO2,Antons,47.25783878,-1.62331809,3,1
FORU2,Forum d'Orvault,47.25444158,-1.61522435,3,2
JAUR1,Jacqueline Auriol,47.27117105,-1.47179655,3,1
JLVE2,Joliverie,47.18957913,-1.51698525,3,1
CJOS1,Cimetière St-Joseph,47.26853105,-1.52065319,3,1
HBRA2,Herbray,47.15046703,-1.47100957,3,2
LPLE3,La Plée,47.19316632,-1.46412574,3,2
FLEU4,Fleuriaye,47.298913,-1.5000839,3,1
CNTR1,Centaure,47.17000083,-1.62698833,3,1
SOWE2,Soweto,47.23321891,-1.65159391,3,2
BEMZ2,Belges - Montbazon,47.23439888,-1.54008782,3,2
WDIS1,Walt Disney,47.19432664,-1.49006973,3,2
EMBE2,Embellie,47.26552105,-1.51855455,3,1
CLSE2,Closeaux,47.2393198,-1.62784519,3,1
PCNN1,Planchonnais,47.25349581,-1.47473853,3,1
SPLO1,Ste-Philomène,47.21191661,-1.72471184,3,2
BETO2,Belle Etoile,47.28018843,-1.45156128,3,2
TENA5,Tertre,47.21455934,-1.606741,3,1
FRII2,François II,47.21828529,-1.68241312,3,1
AMPE2,Ampère,47.26076026,-1.55348181,3,1
BGSH1,Bergerie,47.2379151,-1.62825286,3,1
CONI1,Corniche,47.25262913,-1.59438669,3,1
CCDI3,Cochardières,47.22980058,-1.63416891,3,2
CPGT1,Capitaine Grant,47.261461,-1.66713455,3,1
NRDA5,Neruda,47.21762937,-1.61143689,3,1
LGOF2,Le Goffic,47.2308724,-1.56378351,3,1
POYA1,Poyaux,47.16677371,-1.53046821,3,2
CSHB1,Carrières,47.20819025,-1.63823158,3,1
PLSS1,Plessis,47.26044161,-1.66019407,3,1
PFNA2,Purfina,47.19455614,-1.63470433,3,2
CEGA1,Gare de La Chapelle,47.29586473,-1.5489661,3,2
OCAN1,Océane,47.22754726,-1.63596515,3,1
BGAR3,Bonne Garde,47.19684863,-1.53143348,3,2
BCOI2,Branchoire,47.21806578,-1.60339574,3,1
LHLE1,Le Halleray,47.26982394,-1.45659159,3,1
MORH4,Morrhonnière - Petit Port,47.24098159,-1.55730524,3,1
MDEL2,Mandel,47.20248455,-1.53710189,3,2
ECSU5,École Centrale - Audencia,47.24811586,-1.55153546,3,1
JROS2,Jean Rostand,47.24590592,-1.59379453,0,1
ZENI2,Zénith,47.2306218,-1.62938756,3,1
VAIL1,Vaillant,47.19955918,-1.67102747,3,1
SSGN1,Simone Signoret,47.17509653,-1.56356412,3,1
CP3R2,Chapelles,47.16518847,-1.53968391,3,1
VERL2,Verlaine,47.23327621,-1.59454443,3,1
BSEJ2,Beauséjour,47.23799685,-1.58681914,0,1
FAUV1,Fauvelière,47.28300983,-1.50531201,3,1
FOCH4,Foch - Cathédrale,47.21877706,-1.55048847,3,1
LCAR2,Le Cardo,47.26193885,-1.58395108,0,1
ABCH2,Abbé Chérel,47.21010645,-1.65174942,3,1
RREN4,Rond-Point de Rennes,47.23314315,-1.5663068,3,1
TEIF1,Tour Eiffel,47.19975466,-1.75484616,3,1
RETA2,Retas,47.15488605,-1.53691685,3,2
VEGE2,Verger,47.29304389,-1.49720553,3,2
BNTA2,BN,47.18466314,-1.49634362,3,1
RCAS5,René Cassin,47.26420499,-1.57697388,3,1
CELL3,Le Cellier,47.3267624,-1.34800097,3,2
BLUA1,Bélouga,47.16574918,-1.58366796,3,1
BGNN1,Bourgonnière,47.20664821,-1.65545291,3,1
FBAU2,François Baudry,47.26221783,-1.67192539,3,2
SLVI2,St-Léger-les-Vignes,47.13636327,-1.72978284,3,1
CCRE2,Chêne Creux,47.16999256,-1.54839859,3,2
OCOR2,Ouche Cormier,47.26463543,-1.62347497,3,1
STBS3,Stade,47.19107285,-1.70768687,3,1
PDCE1,Pont du Cens,47.24857164,-1.57730572,3,1
MDAR1,Maison des Arts,47.21110969,-1.61746443,3,1
LSYY2,Léon Say,47.22895085,-1.56959469,3,2
CQGU1,Chat qui Guette,47.19198192,-1.69745773,3,1
LAGE4,Largeau,47.19496952,-1.51000559,3,2
COUD2,Coudray,47.23214764,-1.54248589,3,1
MLCH3,Morlachère,47.16200253,-1.48364677,3,1
LBAU1,Les Bauches,47.26339332,-1.67736309,3,1
RDMV1,Rue de Mauves,47.27147626,-1.43280449,3,1
CPTE2,Chapelet,47.13245429,-1.64225001,3,1
BLLE2,Bellestre,47.14840668,-1.69339574,3,1
CREZ2,Château de Rezé,47.18481208,-1.55976164,0,1
PSUD2,Pôle sud,47.18877662,-1.46969183,3,1
RAVA2,Ravardière,47.18381131,-1.66533531,3,2
LHOU2,La Houssais,47.17363526,-1.55300318,3,2
HGNR1,Haute Gournière,47.2673851,-1.54571279,3,2
MIMO1,Mimosas,47.24128432,-1.58748091,3,2
ROTY1,Le Roty,47.30473353,-1.54550666,3,2
MPER2,Millepertuis,47.22189896,-1.67962519,3,1
FGRI1,Fief Guérin,47.14393319,-1.66078523,3,2
COLI2,Colinière,47.23562856,-1.50866805,3,1
GESV2,Gesvrine,47.2698022,-1.55219083,3,1
BGLA4,Basse-Goulaine,47.21064215,-1.46458331,3,1
SOUI1,Souillarderie,47.23846828,-1.51605952,0,1
EPIN2,Épinais,47.13619858,-1.61050266,3,2
PHTR1,Parc Chantrerie,47.28568009,-1.5206219,3,1
UGAZ1,Usine à gaz,47.19460515,-1.62045512,3,1
JVNA2,Jules Verne,47.24880342,-1.51728965,3,1
RQIO9,Trentemoult Roquios,47.19554245,-1.58220713,4,1
IDLO2,Îles de Loire,47.21029913,-1.49021283,3,1
BIEE3,Belle Île,47.22371009,-1.73161417,3,1
RAGO1,Ragon,47.16515219,-1.54260646,3,1
NILL3,Nil,47.24185344,-1.60851968,3,1
PLNA1,Port launay,47.2096536,-1.74681648,3,1
CAST1,Castorama,47.25913049,-1.50831863,3,2
PSAU1,Porte de Sautron,47.25119937,-1.61983941,3,1
MNTR2,Ménétrier,47.24126615,-1.52382702,3,2
ADBO2,Audubon,47.21393466,-1.7230407,3,1
HALD1,Haluchère - Batignolles,47.24926872,-1.5230623,0,1
BCNY2,Bas-Chantenay,47.19818576,-1.58893273,3,1
RMNE2,Romanet,47.21187936,-1.608858,0,1
MDTH2,Médiathèque,47.21109669,-1.56108622,0,1
PRNE2,Perrines,47.22762841,-1.5154599,3,2
LHAC1,La Hache,47.2622955,-1.49892551,3,2
